{
"type": "FeatureCollection",
"crs": { "type": "name", "properties": { "name": "urn:ogc:def:crs:OGC:1.3:CRS84" } },
                                                                                
"features": [
{ "type": "Feature", "properties": { "Name": "Ottawa" }, "geometry": { "type": "Point", "coordinates": [ -75.7192, 45.4073 ] } },
{ "type": "Feature", "properties": { "Name": "Montreal" }, "geometry": { "type": "Point", "coordinates": [ -73.6117, 45.5129 ] } },
{ "type": "Feature", "properties": { "Name": "Quebec" }, "geometry": { "type": "Point", "coordinates": [ -71.2222, 46.8067 ] } },
{ "type": "Feature", "properties": { "Name": "Boston" }, "geometry": { "type": "Point", "coordinates": [ -71.1134, 42.3 ] } },
{ "type": "Feature", "properties": { "Name": "Albany" }, "geometry": { "type": "Point", "coordinates": [ -73.7658, 42.6582 ] } },
{ "type": "Feature", "properties": { "Name": "Hartford" }, "geometry": { "type": "Point", "coordinates": [ -72.6721, 41.7695 ] } },
{ "type": "Feature", "properties": { "Name": "New York City" }, "geometry": { "type": "Point", "coordinates": [ -73.9936, 40.7506 ] } },
{ "type": "Feature", "properties": { "Name": "Pittsburg" }, "geometry": { "type": "Point", "coordinates": [ -80.0399, 40.3944 ] } },
{ "type": "Feature", "properties": { "Name": "Washington" }, "geometry": { "type": "Point", "coordinates": [ -77.0583, 38.9353 ] } },
{ "type": "Feature", "properties": { "Name": "Baltimore" }, "geometry": { "type": "Point", "coordinates": [ -76.614, 39.2895 ] } },
{ "type": "Feature", "properties": { "Name": "Philadelphia" }, "geometry": { "type": "Point", "coordinates": [ -75.1992, 39.9503 ] } },
{ "type": "Feature", "properties": { "Name": "Richmond" }, "geometry": { "type": "Point", "coordinates": [ -77.419, 37.5276 ] } },
{ "type": "Feature", "properties": { "Name": "Norfolk" }, "geometry": { "type": "Point", "coordinates": [ -76.2131, 36.8414 ] } },
{ "type": "Feature", "properties": { "Name": "Raleigh" }, "geometry": { "type": "Point", "coordinates": [ -78.6523, 35.7712 ] } },
{ "type": "Feature", "properties": { "Name": "Columbus" }, "geometry": { "type": "Point", "coordinates": [ -82.9738, 40.003 ] } },
{ "type": "Feature", "properties": { "Name": "Charlotte" }, "geometry": { "type": "Point", "coordinates": [ -80.8588, 35.238 ] } },
{ "type": "Feature", "properties": { "Name": "Cleveland" }, "geometry": { "type": "Point", "coordinates": [ -81.6883, 41.5093 ] } },
{ "type": "Feature", "properties": { "Name": "Buffalo" }, "geometry": { "type": "Point", "coordinates": [ -78.8384, 42.9397 ] } },
{ "type": "Feature", "properties": { "Name": "Toronto" }, "geometry": { "type": "Point", "coordinates": [ -79.3548, 43.7158 ] } },
{ "type": "Feature", "properties": { "Name": "Detroit" }, "geometry": { "type": "Point", "coordinates": [ -83.0833, 42.3315 ] } },
{ "type": "Feature", "properties": { "Name": "Grand Rapids" }, "geometry": { "type": "Point", "coordinates": [ -85.7067, 42.9658 ] } },
{ "type": "Feature", "properties": { "Name": "Chicago" }, "geometry": { "type": "Point", "coordinates": [ -87.6099, 41.8919 ] } },
{ "type": "Feature", "properties": { "Name": "Milwaukee" }, "geometry": { "type": "Point", "coordinates": [ -87.9035, 43.0482 ] } },
{ "type": "Feature", "properties": { "Name": "Lansing" }, "geometry": { "type": "Point", "coordinates": [ -84.4937, 42.7335 ] } },
{ "type": "Feature", "properties": { "Name": "Cincinnati" }, "geometry": { "type": "Point", "coordinates": [ -84.6561, 39.0509 ] } },
{ "type": "Feature", "properties": { "Name": "Indianapolis" }, "geometry": { "type": "Point", "coordinates": [ -86.1217, 39.8253 ] } },
{ "type": "Feature", "properties": { "Name": "Minneapolis" }, "geometry": { "type": "Point", "coordinates": [ -93.2797, 44.9484 ] } },
{ "type": "Feature", "properties": { "Name": "Kansas City" }, "geometry": { "type": "Point", "coordinates": [ -94.5542, 39.0424 ] } },
{ "type": "Feature", "properties": { "Name": "St. Louis" }, "geometry": { "type": "Point", "coordinates": [ -90.2883, 38.649 ] } },
{ "type": "Feature", "properties": { "Name": "Nashville" }, "geometry": { "type": "Point", "coordinates": [ -86.5918, 36.2 ] } },
{ "type": "Feature", "properties": { "Name": "Memphis" }, "geometry": { "type": "Point", "coordinates": [ -90.0147, 35.1387 ] } },
{ "type": "Feature", "properties": { "Name": "Atlanta" }, "geometry": { "type": "Point", "coordinates": [ -84.4648, 33.7544 ] } },
{ "type": "Feature", "properties": { "Name": "Birmingham" }, "geometry": { "type": "Point", "coordinates": [ -86.8172, 33.4991 ] } },
{ "type": "Feature", "properties": { "Name": "Jacksonville" }, "geometry": { "type": "Point", "coordinates": [ -81.6957, 30.3094 ] } },
{ "type": "Feature", "properties": { "Name": "Little Rock" }, "geometry": { "type": "Point", "coordinates": [ -92.2739, 34.7485 ] } },
{ "type": "Feature", "properties": { "Name": "Orlando" }, "geometry": { "type": "Point", "coordinates": [ -81.3684, 28.5405 ] } },
{ "type": "Feature", "properties": { "Name": "Tampa" }, "geometry": { "type": "Point", "coordinates": [ -82.5373, 27.9773 ] } },
{ "type": "Feature", "properties": { "Name": "Miami" }, "geometry": { "type": "Point", "coordinates": [ -80.1488, 25.772 ] } },
{ "type": "Feature", "properties": { "Name": "New Orleans" }, "geometry": { "type": "Point", "coordinates": [ -90.0619, 29.9389 ] } },
{ "type": "Feature", "properties": { "Name": "Houston" }, "geometry": { "type": "Point", "coordinates": [ -95.3759, 29.8333 ] } },
{ "type": "Feature", "properties": { "Name": "Austin" }, "geometry": { "type": "Point", "coordinates": [ -97.703, 30.4266 ] } },
{ "type": "Feature", "properties": { "Name": "San Antonio" }, "geometry": { "type": "Point", "coordinates": [ -98.4801, 29.4186 ] } },
{ "type": "Feature", "properties": { "Name": "Dallas" }, "geometry": { "type": "Point", "coordinates": [ -96.8623, 32.843 ] } },
{ "type": "Feature", "properties": { "Name": "Omaha" }, "geometry": { "type": "Point", "coordinates": [ -95.9903, 41.2596 ] } },
{ "type": "Feature", "properties": { "Name": "Tulsa" }, "geometry": { "type": "Point", "coordinates": [ -95.9757, 36.1432 ] } },
{ "type": "Feature", "properties": { "Name": "Oklahoma City" }, "geometry": { "type": "Point", "coordinates": [ -97.5143, 35.4719 ] } },
{ "type": "Feature", "properties": { "Name": "Denver" }, "geometry": { "type": "Point", "coordinates": [ -104.9829, 39.8182 ] } },
{ "type": "Feature", "properties": { "Name": "Albuquerque" }, "geometry": { "type": "Point", "coordinates": [ -106.6376, 35.1259 ] } },
{ "type": "Feature", "properties": { "Name": "El Paso" }, "geometry": { "type": "Point", "coordinates": [ -106.4451, 31.8285 ] } },
{ "type": "Feature", "properties": { "Name": "Salt Lake" }, "geometry": { "type": "Point", "coordinates": [ -111.916, 40.842 ] } },
{ "type": "Feature", "properties": { "Name": "Las Vegas" }, "geometry": { "type": "Point", "coordinates": [ -115.1469, 36.0811 ] } },
{ "type": "Feature", "properties": { "Name": "Reno" }, "geometry": { "type": "Point", "coordinates": [ -119.8205, 39.5459 ] } },
{ "type": "Feature", "properties": { "Name": "San Francisco" }, "geometry": { "type": "Point", "coordinates": [ -122.464, 37.7642 ] } },
{ "type": "Feature", "properties": { "Name": "Sacramento" }, "geometry": { "type": "Point", "coordinates": [ -121.4979, 38.625 ] } },
{ "type": "Feature", "properties": { "Name": "Fresno" }, "geometry": { "type": "Point", "coordinates": [ -119.7778, 36.7357 ] } },
{ "type": "Feature", "properties": { "Name": "Los Angeles" }, "geometry": { "type": "Point", "coordinates": [ -118.3351, 34.0326 ] } },
{ "type": "Feature", "properties": { "Name": "San Diego" }, "geometry": { "type": "Point", "coordinates": [ -117.2613, 32.9383 ] } },
{ "type": "Feature", "properties": { "Name": "Phoenix" }, "geometry": { "type": "Point", "coordinates": [ -112.0735, 33.3778 ] } },
{ "type": "Feature", "properties": { "Name": "Tucson" }, "geometry": { "type": "Point", "coordinates": [ -110.9882, 32.2171 ] } },
{ "type": "Feature", "properties": { "Name": "Eugene" }, "geometry": { "type": "Point", "coordinates": [ -123.1227, 44.0533 ] } },
{ "type": "Feature", "properties": { "Name": "Portland" }, "geometry": { "type": "Point", "coordinates": [ -122.684, 45.4995 ] } },
{ "type": "Feature", "properties": { "Name": "Spokane" }, "geometry": { "type": "Point", "coordinates": [ -117.3966, 47.6718 ] } },
{ "type": "Feature", "properties": { "Name": "Seattle" }, "geometry": { "type": "Point", "coordinates": [ -122.2773, 47.5505 ] } },
{ "type": "Feature", "properties": { "Name": "Vancouver" }, "geometry": { "type": "Point", "coordinates": [ -123.1536, 49.2638 ] } },
{ "type": "Feature", "properties": { "Name": "Calgary" }, "geometry": { "type": "Point", "coordinates": [ -114.096, 51.0448 ] } },
{ "type": "Feature", "properties": { "Name": "Edmonton" }, "geometry": { "type": "Point", "coordinates": [ -113.588, 53.5413 ] } },
{ "type": "Feature", "properties": { "Name": "Winnipeg" }, "geometry": { "type": "Point", "coordinates": [ -97.1577, 49.8078 ] } },
{ "type": "Feature", "properties": { "Name": "Mexico" }, "geometry": { "type": "Point", "coordinates": [ -99.1843, 19.4246 ] } },
{ "type": "Feature", "properties": { "Name": "Monterrey" }, "geometry": { "type": "Point", "coordinates": [ -100.3171, 25.6861 ] } },
{ "type": "Feature", "properties": { "Name": "Guadalajara" }, "geometry": { "type": "Point", "coordinates": [ -103.3489, 20.6288 ] } },
{ "type": "Feature", "properties": { "Name": "Santo Domingo" }, "geometry": { "type": "Point", "coordinates": [ -69.9092, 18.4626 ] } },
{ "type": "Feature", "properties": { "Name": "San Juan" }, "geometry": { "type": "Point", "coordinates": [ -66.1537, 18.4023 ] } },
{ "type": "Feature", "properties": { "Name": "Honolulu" }, "geometry": { "type": "Point", "coordinates": [ -158.052, 21.3619 ] } }
]
}
