{
"type": "FeatureCollection",
"crs": { "type": "name", "properties": { "name": "urn:ogc:def:crs:OGC:1.3:CRS84" } },
                                                                                
"features": [
{ "type": "Feature", "properties": { "name": "Châtillon-Montrouge", "ville": "Paris", "mode": "Metro", "ligne": "Châtillon-Montrouge", "Line": null, "station": "station" }, "geometry": { "type": "Point", "coordinates": [ 2.3016, 48.8108 ] } },
{ "type": "Feature", "properties": { "name": "Malakoff - Rue Étienne Dolet", "ville": "Paris", "mode": "Metro", "ligne": "Malakoff - Rue Étienne Dolet", "Line": null, "station": "station" }, "geometry": { "type": "Point", "coordinates": [ 2.297, 48.8153 ] } },
{ "type": "Feature", "properties": { "name": "Esplanade de La Défense", "ville": "Paris", "mode": "Metro", "ligne": "Esplanade de La Défense", "Line": null, "station": "station" }, "geometry": { "type": "Point", "coordinates": [ 2.2495, 48.8882 ] } },
{ "type": "Feature", "properties": { "name": "Les Sablons", "ville": "Paris", "mode": "Metro", "ligne": "Les Sablons", "Line": null, "station": "station" }, "geometry": { "type": "Point", "coordinates": [ 2.2721, 48.8811 ] } },
{ "type": "Feature", "properties": { "name": "Argentine", "ville": "Paris", "mode": "Metro", "ligne": "Argentine", "Line": null, "station": "station" }, "geometry": { "type": "Point", "coordinates": [ 2.2894, 48.8756 ] } },
{ "type": "Feature", "properties": { "name": "George V", "ville": "Paris", "mode": "Metro", "ligne": "George V", "Line": null, "station": "station" }, "geometry": { "type": "Point", "coordinates": [ 2.3005, 48.8721 ] } },
{ "type": "Feature", "properties": { "name": "Franklin D. Roosevelt", "ville": "Paris", "mode": "Metro", "ligne": "Franklin D. Roosevelt", "Line": null, "station": "station" }, "geometry": { "type": "Point", "coordinates": [ 2.3099, 48.869 ] } },
{ "type": "Feature", "properties": { "name": "Concorde", "ville": "Paris", "mode": "Metro", "ligne": "Concorde", "Line": null, "station": "station" }, "geometry": { "type": "Point", "coordinates": [ 2.3227, 48.8665 ] } },
{ "type": "Feature", "properties": { "name": "Tuileries", "ville": "Paris", "mode": "Metro", "ligne": "Tuileries", "Line": null, "station": "station" }, "geometry": { "type": "Point", "coordinates": [ 2.3305, 48.8643 ] } },
{ "type": "Feature", "properties": { "name": "Palais Royal - Musée du Louvre", "ville": "Paris", "mode": "Metro", "ligne": "Palais Royal - Musée du Louvre", "Line": null, "station": "station" }, "geometry": { "type": "Point", "coordinates": [ 2.3363, 48.8624 ] } },
{ "type": "Feature", "properties": { "name": "Louvre — Rivoli", "ville": "Paris", "mode": "Metro", "ligne": "Louvre — Rivoli", "Line": null, "station": "station" }, "geometry": { "type": "Point", "coordinates": [ 2.3411, 48.8608 ] } },
{ "type": "Feature", "properties": { "name": "Châtelet", "ville": "Paris", "mode": "Metro", "ligne": "Châtelet", "Line": null, "station": "station" }, "geometry": { "type": "Point", "coordinates": [ 2.3474, 48.8588 ] } },
{ "type": "Feature", "properties": { "name": "Saint-Paul", "ville": "Paris", "mode": "Metro", "ligne": "Saint-Paul", "Line": null, "station": "station" }, "geometry": { "type": "Point", "coordinates": [ 2.3604, 48.8554 ] } },
{ "type": "Feature", "properties": { "name": "Bastille", "ville": "Paris", "mode": "Metro", "ligne": "Bastille", "Line": null, "station": "station" }, "geometry": { "type": "Point", "coordinates": [ 2.3687, 48.852 ] } },
{ "type": "Feature", "properties": { "name": "Gare de Lyon (métro 1)", "ville": "Paris", "mode": "Metro", "ligne": "Gare de Lyon (métro 1)", "Line": null, "station": "station" }, "geometry": { "type": "Point", "coordinates": [ 2.3742, 48.8459 ] } },
{ "type": "Feature", "properties": { "name": "Reuilly — Diderot", "ville": "Paris", "mode": "Metro", "ligne": "Reuilly — Diderot", "Line": null, "station": "station" }, "geometry": { "type": "Point", "coordinates": [ 2.3867, 48.8474 ] } },
{ "type": "Feature", "properties": { "name": "Porte de Vincennes", "ville": "Paris", "mode": "Metro", "ligne": "Porte de Vincennes", "Line": null, "station": "station" }, "geometry": { "type": "Point", "coordinates": [ 2.408, 48.8473 ] } },
{ "type": "Feature", "properties": { "name": "Marcel Sembat", "ville": "Paris", "mode": "Metro", "ligne": "Marcel Sembat", "Line": null, "station": "station" }, "geometry": { "type": "Point", "coordinates": [ 2.2436, 48.8336 ] } },
{ "type": "Feature", "properties": { "name": "La Motte-Picquet - Grenelle", "ville": "Paris", "mode": "Metro", "ligne": "La Motte-Picquet - Grenelle", "Line": null, "station": "station" }, "geometry": { "type": "Point", "coordinates": [ 2.2982, 48.849 ] } },
{ "type": "Feature", "properties": { "name": "Cambronne", "ville": "Paris", "mode": "Metro", "ligne": "Cambronne", "Line": null, "station": "station" }, "geometry": { "type": "Point", "coordinates": [ 2.303, 48.8475 ] } },
{ "type": "Feature", "properties": { "name": "Dupleix", "ville": "Paris", "mode": "Metro", "ligne": "Dupleix", "Line": null, "station": "station" }, "geometry": { "type": "Point", "coordinates": [ 2.2937, 48.8504 ] } },
{ "type": "Feature", "properties": { "name": "Orly Ouest", "ville": "Paris", "mode": "Metro", "ligne": "Orly Ouest", "Line": null, "station": "station" }, "geometry": { "type": "Point", "coordinates": [ 2.36, 48.7296 ] } },
{ "type": "Feature", "properties": { "name": "Mairie d'Issy", "ville": "Paris", "mode": "Metro", "ligne": "Mairie d'Issy", "Line": null, "station": "station" }, "geometry": { "type": "Point", "coordinates": [ 2.2731, 48.8242 ] } },
{ "type": "Feature", "properties": { "name": "Porte de Versailles", "ville": "Paris", "mode": "Metro", "ligne": "Porte de Versailles", "Line": null, "station": "station" }, "geometry": { "type": "Point", "coordinates": [ 2.2884, 48.8326 ] } },
{ "type": "Feature", "properties": { "name": "Convention", "ville": "Paris", "mode": "Metro", "ligne": "Convention", "Line": null, "station": "station" }, "geometry": { "type": "Point", "coordinates": [ 2.2966, 48.8373 ] } },
{ "type": "Feature", "properties": { "name": "La Défense - Grande Arche", "ville": "Paris", "mode": "Metro", "ligne": "La Défense - Grande Arche", "Line": null, "station": "station" }, "geometry": { "type": "Point", "coordinates": [ 2.2378, 48.892 ] } },
{ "type": "Feature", "properties": { "name": "Porte d'Orléans", "ville": "Paris", "mode": "Metro", "ligne": "Porte d'Orléans", "Line": null, "station": "station" }, "geometry": { "type": "Point", "coordinates": [ 2.3257, 48.8236 ] } },
{ "type": "Feature", "properties": { "name": "Alésia", "ville": "Paris", "mode": "Metro", "ligne": "Alésia", "Line": null, "station": "station" }, "geometry": { "type": "Point", "coordinates": [ 2.3269, 48.8281 ] } },
{ "type": "Feature", "properties": { "name": "Mouton-Duvernet", "ville": "Paris", "mode": "Metro", "ligne": "Mouton-Duvernet", "Line": null, "station": "station" }, "geometry": { "type": "Point", "coordinates": [ 2.3298, 48.8313 ] } },
{ "type": "Feature", "properties": { "name": "Denfert-Rochereau", "ville": "Paris", "mode": "Metro", "ligne": "Denfert-Rochereau", "Line": null, "station": "station" }, "geometry": { "type": "Point", "coordinates": [ 2.3326, 48.834 ] } },
{ "type": "Feature", "properties": { "name": "Raspail", "ville": "Paris", "mode": "Metro", "ligne": "Raspail", "Line": null, "station": "station" }, "geometry": { "type": "Point", "coordinates": [ 2.3308, 48.8389 ] } },
{ "type": "Feature", "properties": { "name": "Saint-Jacques", "ville": "Paris", "mode": "Metro", "ligne": "Saint-Jacques", "Line": null, "station": "station" }, "geometry": { "type": "Point", "coordinates": [ 2.3366, 48.833 ] } },
{ "type": "Feature", "properties": { "name": "Glacière", "ville": "Paris", "mode": "Metro", "ligne": "Glacière", "Line": null, "station": "station" }, "geometry": { "type": "Point", "coordinates": [ 2.3435, 48.8311 ] } },
{ "type": "Feature", "properties": { "name": "Corvisart", "ville": "Paris", "mode": "Metro", "ligne": "Corvisart", "Line": null, "station": "station" }, "geometry": { "type": "Point", "coordinates": [ 2.3505, 48.8298 ] } },
{ "type": "Feature", "properties": { "name": "Place d'Italie", "ville": "Paris", "mode": "Metro", "ligne": "Place d'Italie", "Line": null, "station": "station" }, "geometry": { "type": "Point", "coordinates": [ 2.3557, 48.8314 ] } },
{ "type": "Feature", "properties": { "name": "Nationale", "ville": "Paris", "mode": "Metro", "ligne": "Nationale", "Line": null, "station": "station" }, "geometry": { "type": "Point", "coordinates": [ 2.3629, 48.8332 ] } },
{ "type": "Feature", "properties": { "name": "Chevaleret", "ville": "Paris", "mode": "Metro", "ligne": "Chevaleret", "Line": null, "station": "station" }, "geometry": { "type": "Point", "coordinates": [ 2.3681, 48.835 ] } },
{ "type": "Feature", "properties": { "name": "Quai de la Gare", "ville": "Paris", "mode": "Metro", "ligne": "Quai de la Gare", "Line": null, "station": "station" }, "geometry": { "type": "Point", "coordinates": [ 2.3729, 48.8371 ] } },
{ "type": "Feature", "properties": { "name": "Stalingrad", "ville": "Paris", "mode": "Metro", "ligne": "Stalingrad", "Line": null, "station": "station" }, "geometry": { "type": "Point", "coordinates": [ 2.3659, 48.8843 ] } },
{ "type": "Feature", "properties": { "name": "Nation", "ville": "Paris", "mode": "Metro", "ligne": "Nation", "Line": null, "station": "station" }, "geometry": { "type": "Point", "coordinates": [ 2.3961, 48.8481 ] } },
{ "type": "Feature", "properties": { "name": "Château de Vincennes", "ville": "Paris", "mode": "Metro", "ligne": "Château de Vincennes", "Line": null, "station": "station" }, "geometry": { "type": "Point", "coordinates": [ 2.4389, 48.8446 ] } },
{ "type": "Feature", "properties": { "name": "Bérault", "ville": "Paris", "mode": "Metro", "ligne": "Bérault", "Line": null, "station": "station" }, "geometry": { "type": "Point", "coordinates": [ 2.4293, 48.8454 ] } },
{ "type": "Feature", "properties": { "name": "Buttes Chaumont", "ville": "Paris", "mode": "Metro", "ligne": "Buttes Chaumont", "Line": null, "station": "station" }, "geometry": { "type": "Point", "coordinates": [ 2.3817, 48.8782 ] } },
{ "type": "Feature", "properties": { "name": "Bolivar", "ville": "Paris", "mode": "Metro", "ligne": "Bolivar", "Line": null, "station": "station" }, "geometry": { "type": "Point", "coordinates": [ 2.3739, 48.8809 ] } },
{ "type": "Feature", "properties": { "name": "Buzenval", "ville": "Paris", "mode": "Metro", "ligne": "Buzenval", "Line": null, "station": "station" }, "geometry": { "type": "Point", "coordinates": [ 2.4014, 48.8518 ] } },
{ "type": "Feature", "properties": { "name": "Saint-Mandé", "ville": "Paris", "mode": "Metro", "ligne": "Saint-Mandé", "Line": null, "station": "station" }, "geometry": { "type": "Point", "coordinates": [ 2.4184, 48.8464 ] } },
{ "type": "Feature", "properties": { "name": "Avron", "ville": "Paris", "mode": "Metro", "ligne": "Avron", "Line": null, "station": "station" }, "geometry": { "type": "Point", "coordinates": [ 2.398, 48.852 ] } },
{ "type": "Feature", "properties": { "name": "Ménilmontant", "ville": "Paris", "mode": "Metro", "ligne": "Ménilmontant", "Line": null, "station": "station" }, "geometry": { "type": "Point", "coordinates": [ 2.3837, 48.8663 ] } },
{ "type": "Feature", "properties": { "name": "Père Lachaise", "ville": "Paris", "mode": "Metro", "ligne": "Père Lachaise", "Line": null, "station": "station" }, "geometry": { "type": "Point", "coordinates": [ 2.3873, 48.863 ] } },
{ "type": "Feature", "properties": { "name": "Philippe Auguste", "ville": "Paris", "mode": "Metro", "ligne": "Philippe Auguste", "Line": null, "station": "station" }, "geometry": { "type": "Point", "coordinates": [ 2.3902, 48.8583 ] } },
{ "type": "Feature", "properties": { "name": "Alexandre Dumas", "ville": "Paris", "mode": "Metro", "ligne": "Alexandre Dumas", "Line": null, "station": "station" }, "geometry": { "type": "Point", "coordinates": [ 2.395, 48.8559 ] } },
{ "type": "Feature", "properties": { "name": "Belleville", "ville": "Paris", "mode": "Metro", "ligne": "Belleville", "Line": null, "station": "station" }, "geometry": { "type": "Point", "coordinates": [ 2.377, 48.872 ] } },
{ "type": "Feature", "properties": { "name": "Couronnes", "ville": "Paris", "mode": "Metro", "ligne": "Couronnes", "Line": null, "station": "station" }, "geometry": { "type": "Point", "coordinates": [ 2.3797, 48.8696 ] } },
{ "type": "Feature", "properties": { "name": "Colonel Fabien", "ville": "Paris", "mode": "Metro", "ligne": "Colonel Fabien", "Line": null, "station": "station" }, "geometry": { "type": "Point", "coordinates": [ 2.3711, 48.8772 ] } },
{ "type": "Feature", "properties": { "name": "Blanche", "ville": "Paris", "mode": "Metro", "ligne": "Blanche", "Line": null, "station": "station" }, "geometry": { "type": "Point", "coordinates": [ 2.3336, 48.8835 ] } },
{ "type": "Feature", "properties": { "name": "Place de Clichy", "ville": "Paris", "mode": "Metro", "ligne": "Place de Clichy", "Line": null, "station": "station" }, "geometry": { "type": "Point", "coordinates": [ 2.3272, 48.8834 ] } },
{ "type": "Feature", "properties": { "name": "Rome", "ville": "Paris", "mode": "Metro", "ligne": "Rome", "Line": null, "station": "station" }, "geometry": { "type": "Point", "coordinates": [ 2.3221, 48.8824 ] } },
{ "type": "Feature", "properties": { "name": "Villiers", "ville": "Paris", "mode": "Metro", "ligne": "Villiers", "Line": null, "station": "station" }, "geometry": { "type": "Point", "coordinates": [ 2.3149, 48.8811 ] } },
{ "type": "Feature", "properties": { "name": "Monceau", "ville": "Paris", "mode": "Metro", "ligne": "Monceau", "Line": null, "station": "station" }, "geometry": { "type": "Point", "coordinates": [ 2.3086, 48.8803 ] } },
{ "type": "Feature", "properties": { "name": "Charles de Gaulle — Étoile (metro)", "ville": "Paris", "mode": "Metro", "ligne": "Charles de Gaulle — Étoile (metro)", "Line": null, "station": "station" }, "geometry": { "type": "Point", "coordinates": [ 2.295, 48.8738 ] } },
{ "type": "Feature", "properties": { "name": "Victor Hugo", "ville": "Paris", "mode": "Metro", "ligne": "Victor Hugo", "Line": null, "station": "station" }, "geometry": { "type": "Point", "coordinates": [ 2.2854, 48.8697 ] } },
{ "type": "Feature", "properties": { "name": "Porte Dauphine", "ville": "Paris", "mode": "Metro", "ligne": "Porte Dauphine", "Line": null, "station": "station" }, "geometry": { "type": "Point", "coordinates": [ 2.2778, 48.8714 ] } },
{ "type": "Feature", "properties": { "name": "Gallieni", "ville": "Paris", "mode": "Metro", "ligne": "Gallieni", "Line": null, "station": "station" }, "geometry": { "type": "Point", "coordinates": [ 2.4167, 48.8653 ] } },
{ "type": "Feature", "properties": { "name": "Porte de Bagnolet", "ville": "Paris", "mode": "Metro", "ligne": "Porte de Bagnolet", "Line": null, "station": "station" }, "geometry": { "type": "Point", "coordinates": [ 2.4088, 48.8646 ] } },
{ "type": "Feature", "properties": { "name": "Rue Saint-Maur", "ville": "Paris", "mode": "Metro", "ligne": "Rue Saint-Maur", "Line": null, "station": "station" }, "geometry": { "type": "Point", "coordinates": [ 2.3795, 48.8643 ] } },
{ "type": "Feature", "properties": { "name": "Parmentier", "ville": "Paris", "mode": "Metro", "ligne": "Parmentier", "Line": null, "station": "station" }, "geometry": { "type": "Point", "coordinates": [ 2.3739, 48.8654 ] } },
{ "type": "Feature", "properties": { "name": "Temple", "ville": "Paris", "mode": "Metro", "ligne": "Temple", "Line": null, "station": "station" }, "geometry": { "type": "Point", "coordinates": [ 2.3606, 48.8665 ] } },
{ "type": "Feature", "properties": { "name": "Arts et Métiers", "ville": "Paris", "mode": "Metro", "ligne": "Arts et Métiers", "Line": null, "station": "station" }, "geometry": { "type": "Point", "coordinates": [ 2.3561, 48.8654 ] } },
{ "type": "Feature", "properties": { "name": "Réaumur - Sébastopol", "ville": "Paris", "mode": "Metro", "ligne": "Réaumur - Sébastopol", "Line": null, "station": "station" }, "geometry": { "type": "Point", "coordinates": [ 2.3525, 48.8663 ] } },
{ "type": "Feature", "properties": { "name": "Bourse", "ville": "Paris", "mode": "Metro", "ligne": "Bourse", "Line": null, "station": "station" }, "geometry": { "type": "Point", "coordinates": [ 2.3415, 48.8686 ] } },
{ "type": "Feature", "properties": { "name": "Quatre Septembre", "ville": "Paris", "mode": "Metro", "ligne": "Quatre Septembre", "Line": null, "station": "station" }, "geometry": { "type": "Point", "coordinates": [ 2.3367, 48.8696 ] } },
{ "type": "Feature", "properties": { "name": "Opéra", "ville": "Paris", "mode": "Metro", "ligne": "Opéra", "Line": null, "station": "station" }, "geometry": { "type": "Point", "coordinates": [ 2.3324, 48.8707 ] } },
{ "type": "Feature", "properties": { "name": "Havre - Caumartin", "ville": "Paris", "mode": "Metro", "ligne": "Havre - Caumartin", "Line": null, "station": "station" }, "geometry": { "type": "Point", "coordinates": [ 2.3273, 48.8737 ] } },
{ "type": "Feature", "properties": { "name": "Malesherbes", "ville": "Paris", "mode": "Metro", "ligne": "Malesherbes", "Line": null, "station": "station" }, "geometry": { "type": "Point", "coordinates": [ 2.3092, 48.8829 ] } },
{ "type": "Feature", "properties": { "name": "Wagram", "ville": "Paris", "mode": "Metro", "ligne": "Wagram", "Line": null, "station": "station" }, "geometry": { "type": "Point", "coordinates": [ 2.3037, 48.8841 ] } },
{ "type": "Feature", "properties": { "name": "Péreire", "ville": "Paris", "mode": "Metro", "ligne": "Péreire", "Line": null, "station": "station" }, "geometry": { "type": "Point", "coordinates": [ 2.299, 48.8847 ] } },
{ "type": "Feature", "properties": { "name": "Porte de Champerret", "ville": "Paris", "mode": "Metro", "ligne": "Porte de Champerret", "Line": null, "station": "station" }, "geometry": { "type": "Point", "coordinates": [ 2.2935, 48.8859 ] } },
{ "type": "Feature", "properties": { "name": "Vaugirard", "ville": "Paris", "mode": "Metro", "ligne": "Vaugirard", "Line": null, "station": "station" }, "geometry": { "type": "Point", "coordinates": [ 2.3013, 48.8396 ] } },
{ "type": "Feature", "properties": { "name": "Volontaires", "ville": "Paris", "mode": "Metro", "ligne": "Volontaires", "Line": null, "station": "station" }, "geometry": { "type": "Point", "coordinates": [ 2.308, 48.8415 ] } },
{ "type": "Feature", "properties": { "name": "Falguière", "ville": "Paris", "mode": "Metro", "ligne": "Falguière", "Line": null, "station": "station" }, "geometry": { "type": "Point", "coordinates": [ 2.3176, 48.8444 ] } },
{ "type": "Feature", "properties": { "name": "Duroc", "ville": "Paris", "mode": "Metro", "ligne": "Duroc", "Line": null, "station": "station" }, "geometry": { "type": "Point", "coordinates": [ 2.3167, 48.8469 ] } },
{ "type": "Feature", "properties": { "name": "Saint-François-Xavier", "ville": "Paris", "mode": "Metro", "ligne": "Saint-François-Xavier", "Line": null, "station": "station" }, "geometry": { "type": "Point", "coordinates": [ 2.3144, 48.8514 ] } },
{ "type": "Feature", "properties": { "name": "Varenne", "ville": "Paris", "mode": "Metro", "ligne": "Varenne", "Line": null, "station": "station" }, "geometry": { "type": "Point", "coordinates": [ 2.3152, 48.8568 ] } },
{ "type": "Feature", "properties": { "name": "Bel-Air", "ville": "Paris", "mode": "Metro", "ligne": "Bel-Air", "Line": null, "station": "station" }, "geometry": { "type": "Point", "coordinates": [ 2.4009, 48.8413 ] } },
{ "type": "Feature", "properties": { "name": "Marx Dormoy", "ville": "Paris", "mode": "Metro", "ligne": "Marx Dormoy", "Line": null, "station": "station" }, "geometry": { "type": "Point", "coordinates": [ 2.3599, 48.8905 ] } },
{ "type": "Feature", "properties": { "name": "Gabriel Péri", "ville": "Paris", "mode": "Metro", "ligne": "Gabriel Péri", "Line": null, "station": "station" }, "geometry": { "type": "Point", "coordinates": [ 2.2949, 48.9162 ] } },
{ "type": "Feature", "properties": { "name": "Jacques Bonsergent", "ville": "Paris", "mode": "Metro", "ligne": "Jacques Bonsergent", "Line": null, "station": "station" }, "geometry": { "type": "Point", "coordinates": [ 2.3607, 48.8711 ] } },
{ "type": "Feature", "properties": { "name": "Anatole France", "ville": "Paris", "mode": "Metro", "ligne": "Anatole France", "Line": null, "station": "station" }, "geometry": { "type": "Point", "coordinates": [ 2.2852, 48.8921 ] } },
{ "type": "Feature", "properties": { "name": "Croix de Chavaux", "ville": "Paris", "mode": "Metro", "ligne": "Croix de Chavaux", "Line": null, "station": "station" }, "geometry": { "type": "Point", "coordinates": [ 2.4358, 48.8579 ] } },
{ "type": "Feature", "properties": { "name": "Mairie de Montreuil", "ville": "Paris", "mode": "Metro", "ligne": "Mairie de Montreuil", "Line": null, "station": "station" }, "geometry": { "type": "Point", "coordinates": [ 2.4416, 48.8626 ] } },
{ "type": "Feature", "properties": { "name": "Pont de Levallois – Bécon", "ville": "Paris", "mode": "Metro", "ligne": "Pont de Levallois – Bécon", "Line": null, "station": "station" }, "geometry": { "type": "Point", "coordinates": [ 2.2804, 48.8971 ] } },
{ "type": "Feature", "properties": { "name": "Louise Michel", "ville": "Paris", "mode": "Metro", "ligne": "Louise Michel", "Line": null, "station": "station" }, "geometry": { "type": "Point", "coordinates": [ 2.2885, 48.8883 ] } },
{ "type": "Feature", "properties": { "name": "Maraîchers", "ville": "Paris", "mode": "Metro", "ligne": "Maraîchers", "Line": null, "station": "station" }, "geometry": { "type": "Point", "coordinates": [ 2.4061, 48.8527 ] } },
{ "type": "Feature", "properties": { "name": "Porte de Montreuil", "ville": "Paris", "mode": "Metro", "ligne": "Porte de Montreuil", "Line": null, "station": "station" }, "geometry": { "type": "Point", "coordinates": [ 2.4105, 48.8535 ] } },
{ "type": "Feature", "properties": { "name": "Robespierre", "ville": "Paris", "mode": "Metro", "ligne": "Robespierre", "Line": null, "station": "station" }, "geometry": { "type": "Point", "coordinates": [ 2.4237, 48.8558 ] } },
{ "type": "Feature", "properties": { "name": "Rue des Boulets", "ville": "Paris", "mode": "Metro", "ligne": "Rue des Boulets", "Line": null, "station": "station" }, "geometry": { "type": "Point", "coordinates": [ 2.3888, 48.8526 ] } },
{ "type": "Feature", "properties": { "name": "Charonne", "ville": "Paris", "mode": "Metro", "ligne": "Charonne", "Line": null, "station": "station" }, "geometry": { "type": "Point", "coordinates": [ 2.3854, 48.8547 ] } },
{ "type": "Feature", "properties": { "name": "Voltaire", "ville": "Paris", "mode": "Metro", "ligne": "Voltaire", "Line": null, "station": "station" }, "geometry": { "type": "Point", "coordinates": [ 2.3798, 48.8582 ] } },
{ "type": "Feature", "properties": { "name": "Saint-Ambroise", "ville": "Paris", "mode": "Metro", "ligne": "Saint-Ambroise", "Line": null, "station": "station" }, "geometry": { "type": "Point", "coordinates": [ 2.3748, 48.8611 ] } },
{ "type": "Feature", "properties": { "name": "Oberkampf", "ville": "Paris", "mode": "Metro", "ligne": "Oberkampf", "Line": null, "station": "station" }, "geometry": { "type": "Point", "coordinates": [ 2.3696, 48.8641 ] } },
{ "type": "Feature", "properties": { "name": "Strasbourg - Saint-Denis", "ville": "Paris", "mode": "Metro", "ligne": "Strasbourg - Saint-Denis", "Line": null, "station": "station" }, "geometry": { "type": "Point", "coordinates": [ 2.3545, 48.8694 ] } },
{ "type": "Feature", "properties": { "name": "Bonne Nouvelle", "ville": "Paris", "mode": "Metro", "ligne": "Bonne Nouvelle", "Line": null, "station": "station" }, "geometry": { "type": "Point", "coordinates": [ 2.3488, 48.8706 ] } },
{ "type": "Feature", "properties": { "name": "Grands Boulevards", "ville": "Paris", "mode": "Metro", "ligne": "Grands Boulevards", "Line": null, "station": "station" }, "geometry": { "type": "Point", "coordinates": [ 2.3433, 48.8715 ] } },
{ "type": "Feature", "properties": { "name": "Richelieu Drouot", "ville": "Paris", "mode": "Metro", "ligne": "Richelieu Drouot", "Line": null, "station": "station" }, "geometry": { "type": "Point", "coordinates": [ 2.3398, 48.872 ] } },
{ "type": "Feature", "properties": { "name": "Chaussée d'Antin - La Fayette", "ville": "Paris", "mode": "Metro", "ligne": "Chaussée d'Antin - La Fayette", "Line": null, "station": "station" }, "geometry": { "type": "Point", "coordinates": [ 2.3335, 48.873 ] } },
{ "type": "Feature", "properties": { "name": "Saint-Augustin", "ville": "Paris", "mode": "Metro", "ligne": "Saint-Augustin", "Line": null, "station": "station" }, "geometry": { "type": "Point", "coordinates": [ 2.3199, 48.8747 ] } },
{ "type": "Feature", "properties": { "name": "Cardinal Lemoine", "ville": "Paris", "mode": "Metro", "ligne": "Cardinal Lemoine", "Line": null, "station": "station" }, "geometry": { "type": "Point", "coordinates": [ 2.3517, 48.8465 ] } },
{ "type": "Feature", "properties": { "name": "Maubert Mutualité", "ville": "Paris", "mode": "Metro", "ligne": "Maubert Mutualité", "Line": null, "station": "station" }, "geometry": { "type": "Point", "coordinates": [ 2.3487, 48.8499 ] } },
{ "type": "Feature", "properties": { "name": "Cluny - La Sorbonne", "ville": "Paris", "mode": "Metro", "ligne": "Cluny - La Sorbonne", "Line": null, "station": "station" }, "geometry": { "type": "Point", "coordinates": [ 2.3448, 48.851 ] } },
{ "type": "Feature", "properties": { "name": "Odéon", "ville": "Paris", "mode": "Metro", "ligne": "Odéon", "Line": null, "station": "station" }, "geometry": { "type": "Point", "coordinates": [ 2.3394, 48.8523 ] } },
{ "type": "Feature", "properties": { "name": "Mabillon", "ville": "Paris", "mode": "Metro", "ligne": "Mabillon", "Line": null, "station": "station" }, "geometry": { "type": "Point", "coordinates": [ 2.335, 48.8528 ] } },
{ "type": "Feature", "properties": { "name": "Balard", "ville": "Paris", "mode": "Metro", "ligne": "Balard", "Line": null, "station": "station" }, "geometry": { "type": "Point", "coordinates": [ 2.2784, 48.8364 ] } },
{ "type": "Feature", "properties": { "name": "Lourmel", "ville": "Paris", "mode": "Metro", "ligne": "Lourmel", "Line": null, "station": "station" }, "geometry": { "type": "Point", "coordinates": [ 2.2821, 48.8387 ] } },
{ "type": "Feature", "properties": { "name": "Boucicaut", "ville": "Paris", "mode": "Metro", "ligne": "Boucicaut", "Line": null, "station": "station" }, "geometry": { "type": "Point", "coordinates": [ 2.2879, 48.8411 ] } },
{ "type": "Feature", "properties": { "name": "Félix Faure", "ville": "Paris", "mode": "Metro", "ligne": "Félix Faure", "Line": null, "station": "station" }, "geometry": { "type": "Point", "coordinates": [ 2.2918, 48.8427 ] } },
{ "type": "Feature", "properties": { "name": "Basilique de Saint-Denis", "ville": "Paris", "mode": "Metro", "ligne": "Basilique de Saint-Denis", "Line": null, "station": "station" }, "geometry": { "type": "Point", "coordinates": [ 2.3591, 48.9368 ] } },
{ "type": "Feature", "properties": { "name": "Dugommier", "ville": "Paris", "mode": "Metro", "ligne": "Dugommier", "Line": null, "station": "station" }, "geometry": { "type": "Point", "coordinates": [ 2.3897, 48.839 ] } },
{ "type": "Feature", "properties": { "name": "Daumesnil", "ville": "Paris", "mode": "Metro", "ligne": "Daumesnil", "Line": null, "station": "station" }, "geometry": { "type": "Point", "coordinates": [ 2.3959, 48.8395 ] } },
{ "type": "Feature", "properties": { "name": "Bercy", "ville": "Paris", "mode": "Metro", "ligne": "Bercy", "Line": null, "station": "station" }, "geometry": { "type": "Point", "coordinates": [ 2.3799, 48.8402 ] } },
{ "type": "Feature", "properties": { "name": "Edgar Quinet", "ville": "Paris", "mode": "Metro", "ligne": "Edgar Quinet", "Line": null, "station": "station" }, "geometry": { "type": "Point", "coordinates": [ 2.325, 48.8411 ] } },
{ "type": "Feature", "properties": { "name": "Pasteur", "ville": "Paris", "mode": "Metro", "ligne": "Pasteur", "Line": null, "station": "station" }, "geometry": { "type": "Point", "coordinates": [ 2.3126, 48.8429 ] } },
{ "type": "Feature", "properties": { "name": "Kléber", "ville": "Paris", "mode": "Metro", "ligne": "Kléber", "Line": null, "station": "station" }, "geometry": { "type": "Point", "coordinates": [ 2.2935, 48.8717 ] } },
{ "type": "Feature", "properties": { "name": "Boissière", "ville": "Paris", "mode": "Metro", "ligne": "Boissière", "Line": null, "station": "station" }, "geometry": { "type": "Point", "coordinates": [ 2.2903, 48.8669 ] } },
{ "type": "Feature", "properties": { "name": "Passy", "ville": "Paris", "mode": "Metro", "ligne": "Passy", "Line": null, "station": "station" }, "geometry": { "type": "Point", "coordinates": [ 2.2858, 48.8575 ] } },
{ "type": "Feature", "properties": { "name": "Iéna", "ville": "Paris", "mode": "Metro", "ligne": "Iéna", "Line": null, "station": "station" }, "geometry": { "type": "Point", "coordinates": [ 2.2938, 48.8647 ] } },
{ "type": "Feature", "properties": { "name": "Rue de la Pompe", "ville": "Paris", "mode": "Metro", "ligne": "Rue de la Pompe", "Line": null, "station": "station" }, "geometry": { "type": "Point", "coordinates": [ 2.2781, 48.864 ] } },
{ "type": "Feature", "properties": { "name": "La Muette", "ville": "Paris", "mode": "Metro", "ligne": "La Muette", "Line": null, "station": "station" }, "geometry": { "type": "Point", "coordinates": [ 2.2742, 48.8581 ] } },
{ "type": "Feature", "properties": { "name": "Ranelagh", "ville": "Paris", "mode": "Metro", "ligne": "Ranelagh", "Line": null, "station": "station" }, "geometry": { "type": "Point", "coordinates": [ 2.2702, 48.8556 ] } },
{ "type": "Feature", "properties": { "name": "Jasmin", "ville": "Paris", "mode": "Metro", "ligne": "Jasmin", "Line": null, "station": "station" }, "geometry": { "type": "Point", "coordinates": [ 2.2682, 48.8526 ] } },
{ "type": "Feature", "properties": { "name": "Michel-Ange - Auteuil", "ville": "Paris", "mode": "Metro", "ligne": "Michel-Ange - Auteuil", "Line": null, "station": "station" }, "geometry": { "type": "Point", "coordinates": [ 2.2642, 48.848 ] } },
{ "type": "Feature", "properties": { "name": "Michel-Ange - Molitor", "ville": "Paris", "mode": "Metro", "ligne": "Michel-Ange - Molitor", "Line": null, "station": "station" }, "geometry": { "type": "Point", "coordinates": [ 2.2619, 48.8453 ] } },
{ "type": "Feature", "properties": { "name": "Exelmans", "ville": "Paris", "mode": "Metro", "ligne": "Exelmans", "Line": null, "station": "station" }, "geometry": { "type": "Point", "coordinates": [ 2.26, 48.843 ] } },
{ "type": "Feature", "properties": { "name": "Porte de Saint-Cloud", "ville": "Paris", "mode": "Metro", "ligne": "Porte de Saint-Cloud", "Line": null, "station": "station" }, "geometry": { "type": "Point", "coordinates": [ 2.2566, 48.8378 ] } },
{ "type": "Feature", "properties": { "name": "Alma-Marceau", "ville": "Paris", "mode": "Metro", "ligne": "Alma-Marceau", "Line": null, "station": "station" }, "geometry": { "type": "Point", "coordinates": [ 2.3006, 48.865 ] } },
{ "type": "Feature", "properties": { "name": "Saint-Philippe du Roule", "ville": "Paris", "mode": "Metro", "ligne": "Saint-Philippe du Roule", "Line": null, "station": "station" }, "geometry": { "type": "Point", "coordinates": [ 2.3101, 48.8723 ] } },
{ "type": "Feature", "properties": { "name": "Miromesnil", "ville": "Paris", "mode": "Metro", "ligne": "Miromesnil", "Line": null, "station": "station" }, "geometry": { "type": "Point", "coordinates": [ 2.3145, 48.8737 ] } },
{ "type": "Feature", "properties": { "name": "Sèvres-Babylone", "ville": "Paris", "mode": "Metro", "ligne": "Sèvres-Babylone", "Line": null, "station": "station" }, "geometry": { "type": "Point", "coordinates": [ 2.3267, 48.8515 ] } },
{ "type": "Feature", "properties": { "name": "Mairie de Clichy", "ville": "Paris", "mode": "Metro", "ligne": "Mairie de Clichy", "Line": null, "station": "station" }, "geometry": { "type": "Point", "coordinates": [ 2.3054, 48.9039 ] } },
{ "type": "Feature", "properties": { "name": "Porte de Clichy", "ville": "Paris", "mode": "Metro", "ligne": "Porte de Clichy", "Line": null, "station": "station" }, "geometry": { "type": "Point", "coordinates": [ 2.3145, 48.894 ] } },
{ "type": "Feature", "properties": { "name": "Brochant", "ville": "Paris", "mode": "Metro", "ligne": "Brochant", "Line": null, "station": "station" }, "geometry": { "type": "Point", "coordinates": [ 2.3201, 48.8905 ] } },
{ "type": "Feature", "properties": { "name": "La Fourche", "ville": "Paris", "mode": "Metro", "ligne": "La Fourche", "Line": null, "station": "station" }, "geometry": { "type": "Point", "coordinates": [ 2.3257, 48.8874 ] } },
{ "type": "Feature", "properties": { "name": "Ségur", "ville": "Paris", "mode": "Metro", "ligne": "Ségur", "Line": null, "station": "station" }, "geometry": { "type": "Point", "coordinates": [ 2.3076, 48.8471 ] } },
{ "type": "Feature", "properties": { "name": "Avenue Émile Zola", "ville": "Paris", "mode": "Metro", "ligne": "Avenue Émile Zola", "Line": null, "station": "station" }, "geometry": { "type": "Point", "coordinates": [ 2.2953, 48.847 ] } },
{ "type": "Feature", "properties": { "name": "Assemblée Nationale", "ville": "Paris", "mode": "Metro", "ligne": "Assemblée Nationale", "Line": null, "station": "station" }, "geometry": { "type": "Point", "coordinates": [ 2.3211, 48.8607 ] } },
{ "type": "Feature", "properties": { "name": "Solférino", "ville": "Paris", "mode": "Metro", "ligne": "Solférino", "Line": null, "station": "station" }, "geometry": { "type": "Point", "coordinates": [ 2.3231, 48.8587 ] } },
{ "type": "Feature", "properties": { "name": "Rennes", "ville": "Paris", "mode": "Metro", "ligne": "Rennes", "Line": null, "station": "station" }, "geometry": { "type": "Point", "coordinates": [ 2.3278, 48.8481 ] } },
{ "type": "Feature", "properties": { "name": "Notre-Dame des Champs", "ville": "Paris", "mode": "Metro", "ligne": "Notre-Dame des Champs", "Line": null, "station": "station" }, "geometry": { "type": "Point", "coordinates": [ 2.3287, 48.8453 ] } },
{ "type": "Feature", "properties": { "name": "Madeleine", "ville": "Paris", "mode": "Metro", "ligne": "Madeleine", "Line": null, "station": "station" }, "geometry": { "type": "Point", "coordinates": [ 2.3254, 48.8694 ] } },
{ "type": "Feature", "properties": { "name": "Commerce", "ville": "Paris", "mode": "Metro", "ligne": "Commerce", "Line": null, "station": "station" }, "geometry": { "type": "Point", "coordinates": [ 2.2938, 48.8447 ] } },
{ "type": "Feature", "properties": { "name": "École Militaire", "ville": "Paris", "mode": "Metro", "ligne": "École Militaire", "Line": null, "station": "station" }, "geometry": { "type": "Point", "coordinates": [ 2.3061, 48.8546 ] } },
{ "type": "Feature", "properties": { "name": "La Tour Maubourg", "ville": "Paris", "mode": "Metro", "ligne": "La Tour Maubourg", "Line": null, "station": "station" }, "geometry": { "type": "Point", "coordinates": [ 2.3103, 48.8576 ] } },
{ "type": "Feature", "properties": { "name": "Invalides", "ville": "Paris", "mode": "Metro", "ligne": "Invalides", "Line": null, "station": "station" }, "geometry": { "type": "Point", "coordinates": [ 2.3148, 48.8612 ] } },
{ "type": "Feature", "properties": { "name": "Filles du Calvaire", "ville": "Paris", "mode": "Metro", "ligne": "Filles du Calvaire", "Line": null, "station": "station" }, "geometry": { "type": "Point", "coordinates": [ 2.3666, 48.8633 ] } },
{ "type": "Feature", "properties": { "name": "Saint-Sébastien - Froissart", "ville": "Paris", "mode": "Metro", "ligne": "Saint-Sébastien - Froissart", "Line": null, "station": "station" }, "geometry": { "type": "Point", "coordinates": [ 2.3672, 48.8611 ] } },
{ "type": "Feature", "properties": { "name": "Chemin Vert", "ville": "Paris", "mode": "Metro", "ligne": "Chemin Vert", "Line": null, "station": "station" }, "geometry": { "type": "Point", "coordinates": [ 2.368, 48.8575 ] } },
{ "type": "Feature", "properties": { "name": "Ledru-Rollin", "ville": "Paris", "mode": "Metro", "ligne": "Ledru-Rollin", "Line": null, "station": "station" }, "geometry": { "type": "Point", "coordinates": [ 2.376, 48.8512 ] } },
{ "type": "Feature", "properties": { "name": "Faidherbe — Chaligny", "ville": "Paris", "mode": "Metro", "ligne": "Faidherbe — Chaligny", "Line": null, "station": "station" }, "geometry": { "type": "Point", "coordinates": [ 2.3843, 48.85 ] } },
{ "type": "Feature", "properties": { "name": "Montgallet", "ville": "Paris", "mode": "Metro", "ligne": "Montgallet", "Line": null, "station": "station" }, "geometry": { "type": "Point", "coordinates": [ 2.3901, 48.8443 ] } },
{ "type": "Feature", "properties": { "name": "Michel Bizot", "ville": "Paris", "mode": "Metro", "ligne": "Michel Bizot", "Line": null, "station": "station" }, "geometry": { "type": "Point", "coordinates": [ 2.4025, 48.8371 ] } },
{ "type": "Feature", "properties": { "name": "Liberté", "ville": "Paris", "mode": "Metro", "ligne": "Liberté", "Line": null, "station": "station" }, "geometry": { "type": "Point", "coordinates": [ 2.4057, 48.8266 ] } },
{ "type": "Feature", "properties": { "name": "Porte Dorée", "ville": "Paris", "mode": "Metro", "ligne": "Porte Dorée", "Line": null, "station": "station" }, "geometry": { "type": "Point", "coordinates": [ 2.4063, 48.8355 ] } },
{ "type": "Feature", "properties": { "name": "Picpus", "ville": "Paris", "mode": "Metro", "ligne": "Picpus", "Line": null, "station": "station" }, "geometry": { "type": "Point", "coordinates": [ 2.4011, 48.8451 ] } },
{ "type": "Feature", "properties": { "name": "Olympiades", "ville": "Paris", "mode": "Metro", "ligne": "Olympiades", "Line": null, "station": "station" }, "geometry": { "type": "Point", "coordinates": [ 2.3662, 48.8269 ] } },
{ "type": "Feature", "properties": { "name": "Porte de Charenton", "ville": "Paris", "mode": "Metro", "ligne": "Porte de Charenton", "Line": null, "station": "station" }, "geometry": { "type": "Point", "coordinates": [ 2.399, 48.8323 ] } },
{ "type": "Feature", "properties": { "name": "Pyramides", "ville": "Paris", "mode": "Metro", "ligne": "Pyramides", "Line": null, "station": "station" }, "geometry": { "type": "Point", "coordinates": [ 2.3344, 48.8659 ] } },
{ "type": "Feature", "properties": { "name": "Trinité d'Estienne d'Orves", "ville": "Paris", "mode": "Metro", "ligne": "Trinité d'Estienne d'Orves", "Line": null, "station": "station" }, "geometry": { "type": "Point", "coordinates": [ 2.3326, 48.8764 ] } },
{ "type": "Feature", "properties": { "name": "Notre-Dame de Lorette", "ville": "Paris", "mode": "Metro", "ligne": "Notre-Dame de Lorette", "Line": null, "station": "station" }, "geometry": { "type": "Point", "coordinates": [ 2.3386, 48.8761 ] } },
{ "type": "Feature", "properties": { "name": "Rue du Bac", "ville": "Paris", "mode": "Metro", "ligne": "Rue du Bac", "Line": null, "station": "station" }, "geometry": { "type": "Point", "coordinates": [ 2.3257, 48.8557 ] } },
{ "type": "Feature", "properties": { "name": "Saint-Georges", "ville": "Paris", "mode": "Metro", "ligne": "Saint-Georges", "Line": null, "station": "station" }, "geometry": { "type": "Point", "coordinates": [ 2.3375, 48.8784 ] } },
{ "type": "Feature", "properties": { "name": "Abbesses", "ville": "Paris", "mode": "Metro", "ligne": "Abbesses", "Line": null, "station": "station" }, "geometry": { "type": "Point", "coordinates": [ 2.3384, 48.8845 ] } },
{ "type": "Feature", "properties": { "name": "Lamarck - Caulaincourt", "ville": "Paris", "mode": "Metro", "ligne": "Lamarck - Caulaincourt", "Line": null, "station": "station" }, "geometry": { "type": "Point", "coordinates": [ 2.3386, 48.8898 ] } },
{ "type": "Feature", "properties": { "name": "Jules Joffrin", "ville": "Paris", "mode": "Metro", "ligne": "Jules Joffrin", "Line": null, "station": "station" }, "geometry": { "type": "Point", "coordinates": [ 2.3446, 48.8925 ] } },
{ "type": "Feature", "properties": { "name": "Porte de la Chapelle", "ville": "Paris", "mode": "Metro", "ligne": "Porte de la Chapelle", "Line": null, "station": "station" }, "geometry": { "type": "Point", "coordinates": [ 2.3593, 48.8977 ] } },
{ "type": "Feature", "properties": { "name": "Simplon", "ville": "Paris", "mode": "Metro", "ligne": "Simplon", "Line": null, "station": "station" }, "geometry": { "type": "Point", "coordinates": [ 2.3477, 48.8938 ] } },
{ "type": "Feature", "properties": { "name": "Gare du Nord (métro)", "ville": "Paris", "mode": "Metro", "ligne": "Gare du Nord (métro)", "Line": null, "station": "station" }, "geometry": { "type": "Point", "coordinates": [ 2.3571, 48.8796 ] } },
{ "type": "Feature", "properties": { "name": "Gare de l'Est", "ville": "Paris", "mode": "Metro", "ligne": "Gare de l'Est", "Line": null, "station": "station" }, "geometry": { "type": "Point", "coordinates": [ 2.3579, 48.8762 ] } },
{ "type": "Feature", "properties": { "name": "Étienne Marcel", "ville": "Paris", "mode": "Metro", "ligne": "Étienne Marcel", "Line": null, "station": "station" }, "geometry": { "type": "Point", "coordinates": [ 2.3499, 48.864 ] } },
{ "type": "Feature", "properties": { "name": "Château d'Eau", "ville": "Paris", "mode": "Metro", "ligne": "Château d'Eau", "Line": null, "station": "station" }, "geometry": { "type": "Point", "coordinates": [ 2.3563, 48.8729 ] } },
{ "type": "Feature", "properties": { "name": "Les Halles", "ville": "Paris", "mode": "Metro", "ligne": "Les Halles", "Line": null, "station": "station" }, "geometry": { "type": "Point", "coordinates": [ 2.3457, 48.8626 ] } },
{ "type": "Feature", "properties": { "name": "Cité", "ville": "Paris", "mode": "Metro", "ligne": "Cité", "Line": null, "station": "station" }, "geometry": { "type": "Point", "coordinates": [ 2.3475, 48.8553 ] } },
{ "type": "Feature", "properties": { "name": "Saint-Michel", "ville": "Paris", "mode": "Metro", "ligne": "Saint-Michel", "Line": null, "station": "station" }, "geometry": { "type": "Point", "coordinates": [ 2.3435, 48.8533 ] } },
{ "type": "Feature", "properties": { "name": "Saint-Germain-des-Prés", "ville": "Paris", "mode": "Metro", "ligne": "Saint-Germain-des-Prés", "Line": null, "station": "station" }, "geometry": { "type": "Point", "coordinates": [ 2.3347, 48.8533 ] } },
{ "type": "Feature", "properties": { "name": "Saint-Placide", "ville": "Paris", "mode": "Metro", "ligne": "Saint-Placide", "Line": null, "station": "station" }, "geometry": { "type": "Point", "coordinates": [ 2.3271, 48.8471 ] } },
{ "type": "Feature", "properties": { "name": "Vavin", "ville": "Paris", "mode": "Metro", "ligne": "Vavin", "Line": null, "station": "station" }, "geometry": { "type": "Point", "coordinates": [ 2.329, 48.8422 ] } },
{ "type": "Feature", "properties": { "name": "Charles Michels", "ville": "Paris", "mode": "Metro", "ligne": "Charles Michels", "Line": null, "station": "station" }, "geometry": { "type": "Point", "coordinates": [ 2.2859, 48.8465 ] } },
{ "type": "Feature", "properties": { "name": "Javel - André Citroën", "ville": "Paris", "mode": "Metro", "ligne": "Javel - André Citroën", "Line": null, "station": "station" }, "geometry": { "type": "Point", "coordinates": [ 2.2783, 48.8462 ] } },
{ "type": "Feature", "properties": { "name": "Église d'Auteuil", "ville": "Paris", "mode": "Metro", "ligne": "Église d'Auteuil", "Line": null, "station": "station" }, "geometry": { "type": "Point", "coordinates": [ 2.2687, 48.8473 ] } },
{ "type": "Feature", "properties": { "name": "Porte d'Auteuil", "ville": "Paris", "mode": "Metro", "ligne": "Porte d'Auteuil", "Line": null, "station": "station" }, "geometry": { "type": "Point", "coordinates": [ 2.2584, 48.8478 ] } },
{ "type": "Feature", "properties": { "name": "Chardon Lagache", "ville": "Paris", "mode": "Metro", "ligne": "Chardon Lagache", "Line": null, "station": "station" }, "geometry": { "type": "Point", "coordinates": [ 2.2673, 48.8453 ] } },
{ "type": "Feature", "properties": { "name": "Mirabeau", "ville": "Paris", "mode": "Metro", "ligne": "Mirabeau", "Line": null, "station": "station" }, "geometry": { "type": "Point", "coordinates": [ 2.2717, 48.8468 ] } },
{ "type": "Feature", "properties": { "name": "Boulogne - Jean Jaurès", "ville": "Paris", "mode": "Metro", "ligne": "Boulogne - Jean Jaurès", "Line": null, "station": "station" }, "geometry": { "type": "Point", "coordinates": [ 2.2387, 48.842 ] } },
{ "type": "Feature", "properties": { "name": "Boulogne - Pont de Saint-Cloud", "ville": "Paris", "mode": "Metro", "ligne": "Boulogne - Pont de Saint-Cloud", "Line": null, "station": "station" }, "geometry": { "type": "Point", "coordinates": [ 2.2287, 48.8407 ] } },
{ "type": "Feature", "properties": { "name": "Goncourt", "ville": "Paris", "mode": "Metro", "ligne": "Goncourt", "Line": null, "station": "station" }, "geometry": { "type": "Point", "coordinates": [ 2.3711, 48.87 ] } },
{ "type": "Feature", "properties": { "name": "Rambuteau", "ville": "Paris", "mode": "Metro", "ligne": "Rambuteau", "Line": null, "station": "station" }, "geometry": { "type": "Point", "coordinates": [ 2.3538, 48.8618 ] } },
{ "type": "Feature", "properties": { "name": "Porte des Lilas", "ville": "Paris", "mode": "Metro", "ligne": "Porte des Lilas", "Line": null, "station": "station" }, "geometry": { "type": "Point", "coordinates": [ 2.4067, 48.8771 ] } },
{ "type": "Feature", "properties": { "name": "Télégraphe", "ville": "Paris", "mode": "Metro", "ligne": "Télégraphe", "Line": null, "station": "station" }, "geometry": { "type": "Point", "coordinates": [ 2.399, 48.8755 ] } },
{ "type": "Feature", "properties": { "name": "Pyrénées", "ville": "Paris", "mode": "Metro", "ligne": "Pyrénées", "Line": null, "station": "station" }, "geometry": { "type": "Point", "coordinates": [ 2.3853, 48.8738 ] } },
{ "type": "Feature", "properties": { "name": "Jourdain", "ville": "Paris", "mode": "Metro", "ligne": "Jourdain", "Line": null, "station": "station" }, "geometry": { "type": "Point", "coordinates": [ 2.3893, 48.8751 ] } },
{ "type": "Feature", "properties": { "name": "Gaîté", "ville": "Paris", "mode": "Metro", "ligne": "Gaîté", "Line": null, "station": "station" }, "geometry": { "type": "Point", "coordinates": [ 2.3222, 48.8386 ] } },
{ "type": "Feature", "properties": { "name": "Plaisance", "ville": "Paris", "mode": "Metro", "ligne": "Plaisance", "Line": null, "station": "station" }, "geometry": { "type": "Point", "coordinates": [ 2.314, 48.8318 ] } },
{ "type": "Feature", "properties": { "name": "Pernety", "ville": "Paris", "mode": "Metro", "ligne": "Pernety", "Line": null, "station": "station" }, "geometry": { "type": "Point", "coordinates": [ 2.3181, 48.834 ] } },
{ "type": "Feature", "properties": { "name": "Malakoff - Plateau de Vanves", "ville": "Paris", "mode": "Metro", "ligne": "Malakoff - Plateau de Vanves", "Line": null, "station": "station" }, "geometry": { "type": "Point", "coordinates": [ 2.2985, 48.8225 ] } },
{ "type": "Feature", "properties": { "name": "Bréguet-Sabin", "ville": "Paris", "mode": "Metro", "ligne": "Bréguet-Sabin", "Line": null, "station": "station" }, "geometry": { "type": "Point", "coordinates": [ 2.3705, 48.8566 ] } },
{ "type": "Feature", "properties": { "name": "Richard Lenoir", "ville": "Paris", "mode": "Metro", "ligne": "Richard Lenoir", "Line": null, "station": "station" }, "geometry": { "type": "Point", "coordinates": [ 2.3721, 48.8602 ] } },
{ "type": "Feature", "properties": { "name": "Laumière", "ville": "Paris", "mode": "Metro", "ligne": "Laumière", "Line": null, "station": "station" }, "geometry": { "type": "Point", "coordinates": [ 2.3796, 48.885 ] } },
{ "type": "Feature", "properties": { "name": "Ourcq", "ville": "Paris", "mode": "Metro", "ligne": "Ourcq", "Line": null, "station": "station" }, "geometry": { "type": "Point", "coordinates": [ 2.3867, 48.887 ] } },
{ "type": "Feature", "properties": { "name": "Porte de Pantin", "ville": "Paris", "mode": "Metro", "ligne": "Porte de Pantin", "Line": null, "station": "station" }, "geometry": { "type": "Point", "coordinates": [ 2.3927, 48.8885 ] } },
{ "type": "Feature", "properties": { "name": "Hoche", "ville": "Paris", "mode": "Metro", "ligne": "Hoche", "Line": null, "station": "station" }, "geometry": { "type": "Point", "coordinates": [ 2.4026, 48.8912 ] } },
{ "type": "Feature", "properties": { "name": "Louis Blanc", "ville": "Paris", "mode": "Metro", "ligne": "Louis Blanc", "Line": null, "station": "station" }, "geometry": { "type": "Point", "coordinates": [ 2.3656, 48.8814 ] } },
{ "type": "Feature", "properties": { "name": "Poissonnière", "ville": "Paris", "mode": "Metro", "ligne": "Poissonnière", "Line": null, "station": "station" }, "geometry": { "type": "Point", "coordinates": [ 2.3493, 48.8772 ] } },
{ "type": "Feature", "properties": { "name": "Riquet", "ville": "Paris", "mode": "Metro", "ligne": "Riquet", "Line": null, "station": "station" }, "geometry": { "type": "Point", "coordinates": [ 2.3742, 48.8885 ] } },
{ "type": "Feature", "properties": { "name": "Crimée", "ville": "Paris", "mode": "Metro", "ligne": "Crimée", "Line": null, "station": "station" }, "geometry": { "type": "Point", "coordinates": [ 2.3774, 48.8909 ] } },
{ "type": "Feature", "properties": { "name": "Corentin Cariou", "ville": "Paris", "mode": "Metro", "ligne": "Corentin Cariou", "Line": null, "station": "station" }, "geometry": { "type": "Point", "coordinates": [ 2.3823, 48.8947 ] } },
{ "type": "Feature", "properties": { "name": "Porte de la Villette", "ville": "Paris", "mode": "Metro", "ligne": "Porte de la Villette", "Line": null, "station": "station" }, "geometry": { "type": "Point", "coordinates": [ 2.3856, 48.8974 ] } },
{ "type": "Feature", "properties": { "name": "Le Peletier", "ville": "Paris", "mode": "Metro", "ligne": "Le Peletier", "Line": null, "station": "station" }, "geometry": { "type": "Point", "coordinates": [ 2.3404, 48.8749 ] } },
{ "type": "Feature", "properties": { "name": "Cadet", "ville": "Paris", "mode": "Metro", "ligne": "Cadet", "Line": null, "station": "station" }, "geometry": { "type": "Point", "coordinates": [ 2.3443, 48.8759 ] } },
{ "type": "Feature", "properties": { "name": "Pont Neuf", "ville": "Paris", "mode": "Metro", "ligne": "Pont Neuf", "Line": null, "station": "station" }, "geometry": { "type": "Point", "coordinates": [ 2.3426, 48.8586 ] } },
{ "type": "Feature", "properties": { "name": "Sully - Morland", "ville": "Paris", "mode": "Metro", "ligne": "Sully - Morland", "Line": null, "station": "station" }, "geometry": { "type": "Point", "coordinates": [ 2.3618, 48.8514 ] } },
{ "type": "Feature", "properties": { "name": "Pont Marie", "ville": "Paris", "mode": "Metro", "ligne": "Pont Marie", "Line": null, "station": "station" }, "geometry": { "type": "Point", "coordinates": [ 2.3567, 48.8539 ] } },
{ "type": "Feature", "properties": { "name": "Place Monge", "ville": "Paris", "mode": "Metro", "ligne": "Place Monge", "Line": null, "station": "station" }, "geometry": { "type": "Point", "coordinates": [ 2.3523, 48.8429 ] } },
{ "type": "Feature", "properties": { "name": "Censier - Daubenton", "ville": "Paris", "mode": "Metro", "ligne": "Censier - Daubenton", "Line": null, "station": "station" }, "geometry": { "type": "Point", "coordinates": [ 2.3519, 48.8406 ] } },
{ "type": "Feature", "properties": { "name": "Les Gobelins", "ville": "Paris", "mode": "Metro", "ligne": "Les Gobelins", "Line": null, "station": "station" }, "geometry": { "type": "Point", "coordinates": [ 2.3528, 48.8356 ] } },
{ "type": "Feature", "properties": { "name": "Pré Saint-Gervais", "ville": "Paris", "mode": "Metro", "ligne": "Pré Saint-Gervais", "Line": null, "station": "station" }, "geometry": { "type": "Point", "coordinates": [ 2.399, 48.8799 ] } },
{ "type": "Feature", "properties": { "name": "Danube", "ville": "Paris", "mode": "Metro", "ligne": "Danube", "Line": null, "station": "station" }, "geometry": { "type": "Point", "coordinates": [ 2.3934, 48.882 ] } },
{ "type": "Feature", "properties": { "name": "Mairie des Lilas", "ville": "Paris", "mode": "Metro", "ligne": "Mairie des Lilas", "Line": null, "station": "station" }, "geometry": { "type": "Point", "coordinates": [ 2.4171, 48.8798 ] } },
{ "type": "Feature", "properties": { "name": "Saint-Fargeau", "ville": "Paris", "mode": "Metro", "ligne": "Saint-Fargeau", "Line": null, "station": "station" }, "geometry": { "type": "Point", "coordinates": [ 2.4043, 48.8715 ] } },
{ "type": "Feature", "properties": { "name": "Pelleport", "ville": "Paris", "mode": "Metro", "ligne": "Pelleport", "Line": null, "station": "station" }, "geometry": { "type": "Point", "coordinates": [ 2.4013, 48.8681 ] } },
{ "type": "Feature", "properties": { "name": "Saint-Marcel", "ville": "Paris", "mode": "Metro", "ligne": "Saint-Marcel", "Line": null, "station": "station" }, "geometry": { "type": "Point", "coordinates": [ 2.3608, 48.8383 ] } },
{ "type": "Feature", "properties": { "name": "Campo-Formio", "ville": "Paris", "mode": "Metro", "ligne": "Campo-Formio", "Line": null, "station": "station" }, "geometry": { "type": "Point", "coordinates": [ 2.3589, 48.8357 ] } },
{ "type": "Feature", "properties": { "name": "Guy Môquet", "ville": "Paris", "mode": "Metro", "ligne": "Guy Môquet", "Line": null, "station": "station" }, "geometry": { "type": "Point", "coordinates": [ 2.3275, 48.8927 ] } },
{ "type": "Feature", "properties": { "name": "Porte de Saint-Ouen", "ville": "Paris", "mode": "Metro", "ligne": "Porte de Saint-Ouen", "Line": null, "station": "station" }, "geometry": { "type": "Point", "coordinates": [ 2.3289, 48.8974 ] } },
{ "type": "Feature", "properties": { "name": "Garibaldi", "ville": "Paris", "mode": "Metro", "ligne": "Garibaldi", "Line": null, "station": "station" }, "geometry": { "type": "Point", "coordinates": [ 2.332, 48.9062 ] } },
{ "type": "Feature", "properties": { "name": "Tolbiac", "ville": "Paris", "mode": "Metro", "ligne": "Tolbiac", "Line": null, "station": "station" }, "geometry": { "type": "Point", "coordinates": [ 2.3574, 48.8261 ] } },
{ "type": "Feature", "properties": { "name": "Maison Blanche", "ville": "Paris", "mode": "Metro", "ligne": "Maison Blanche", "Line": null, "station": "station" }, "geometry": { "type": "Point", "coordinates": [ 2.3585, 48.8225 ] } },
{ "type": "Feature", "properties": { "name": "Porte d'Italie", "ville": "Paris", "mode": "Metro", "ligne": "Porte d'Italie", "Line": null, "station": "station" }, "geometry": { "type": "Point", "coordinates": [ 2.3595, 48.8191 ] } },
{ "type": "Feature", "properties": { "name": "Les Agnettes", "ville": "Paris", "mode": "Metro", "ligne": "Les Agnettes", "Line": null, "station": "station" }, "geometry": { "type": "Point", "coordinates": [ 2.2862, 48.9231 ] } },
{ "type": "Feature", "properties": { "name": "Asnières – Gennevilliers – Les Courtilles", "ville": "Paris", "mode": "Metro", "ligne": "Asnières – Gennevilliers – Les Courtilles", "Line": null, "station": "station" }, "geometry": { "type": "Point", "coordinates": [ 2.2836, 48.9305 ] } },
{ "type": "Feature", "properties": { "name": "Fort d'Aubervilliers", "ville": "Paris", "mode": "Metro", "ligne": "Fort d'Aubervilliers", "Line": null, "station": "station" }, "geometry": { "type": "Point", "coordinates": [ 2.4038, 48.9143 ] } },
{ "type": "Feature", "properties": { "name": "Aubervilliers - Pantin - Quatre Chemins", "ville": "Paris", "mode": "Metro", "ligne": "Aubervilliers - Pantin - Quatre Chemins", "Line": null, "station": "station" }, "geometry": { "type": "Point", "coordinates": [ 2.3922, 48.9036 ] } },
{ "type": "Feature", "properties": { "name": "La Courneuve - 8 mai 1945", "ville": "Paris", "mode": "Metro", "ligne": "La Courneuve - 8 mai 1945", "Line": null, "station": "station" }, "geometry": { "type": "Point", "coordinates": [ 2.4108, 48.9208 ] } },
{ "type": "Feature", "properties": { "name": "Champs-Élysées - Clemenceau", "ville": "Paris", "mode": "Metro", "ligne": "Champs-Élysées - Clemenceau", "Line": null, "station": "station" }, "geometry": { "type": "Point", "coordinates": [ 2.3139, 48.8678 ] } },
{ "type": "Feature", "properties": { "name": "Créteil — L'Échat (Hôpital Henri Mondor)", "ville": "Paris", "mode": "Metro", "ligne": "Créteil — L'Échat (Hôpital Henri Mondor)", "Line": null, "station": "station" }, "geometry": { "type": "Point", "coordinates": [ 2.4492, 48.7964 ] } },
{ "type": "Feature", "properties": { "name": "Créteil Université", "ville": "Paris", "mode": "Metro", "ligne": "Créteil Université", "Line": null, "station": "station" }, "geometry": { "type": "Point", "coordinates": [ 2.4505, 48.7899 ] } },
{ "type": "Feature", "properties": { "name": "Créteil — Préfecture (Hôtel de Ville)", "ville": "Paris", "mode": "Metro", "ligne": "Créteil — Préfecture (Hôtel de Ville)", "Line": null, "station": "station" }, "geometry": { "type": "Point", "coordinates": [ 2.4595, 48.7798 ] } },
{ "type": "Feature", "properties": { "name": "Maisons-Alfort — Les Juilliottes", "ville": "Paris", "mode": "Metro", "ligne": "Maisons-Alfort — Les Juilliottes", "Line": null, "station": "station" }, "geometry": { "type": "Point", "coordinates": [ 2.4467, 48.8025 ] } },
{ "type": "Feature", "properties": { "name": "Maisons-Alfort — Stade", "ville": "Paris", "mode": "Metro", "ligne": "Maisons-Alfort — Stade", "Line": null, "station": "station" }, "geometry": { "type": "Point", "coordinates": [ 2.4347, 48.809 ] } },
{ "type": "Feature", "properties": { "name": "École Vétérinaire de Maisons-Alfort", "ville": "Paris", "mode": "Metro", "ligne": "École Vétérinaire de Maisons-Alfort", "Line": null, "station": "station" }, "geometry": { "type": "Point", "coordinates": [ 2.4218, 48.8151 ] } },
{ "type": "Feature", "properties": { "name": "Charenton-Écoles", "ville": "Paris", "mode": "Metro", "ligne": "Charenton-Écoles", "Line": null, "station": "station" }, "geometry": { "type": "Point", "coordinates": [ 2.4136, 48.8215 ] } },
{ "type": "Feature", "properties": { "name": "Mairie de Saint-Ouen", "ville": "Paris", "mode": "Metro", "ligne": "Mairie de Saint-Ouen", "Line": null, "station": "station" }, "geometry": { "type": "Point", "coordinates": [ 2.334, 48.9119 ] } },
{ "type": "Feature", "properties": { "name": "Carrefour Pleyel", "ville": "Paris", "mode": "Metro", "ligne": "Carrefour Pleyel", "Line": null, "station": "station" }, "geometry": { "type": "Point", "coordinates": [ 2.343, 48.9196 ] } },
{ "type": "Feature", "properties": { "name": "Villejuif - Léo Lagrange", "ville": "Paris", "mode": "Metro", "ligne": "Villejuif - Léo Lagrange", "Line": null, "station": "station" }, "geometry": { "type": "Point", "coordinates": [ 2.3638, 48.8051 ] } },
{ "type": "Feature", "properties": { "name": "Villejuif–Louis Aragon", "ville": "Paris", "mode": "Metro", "ligne": "Villejuif–Louis Aragon", "Line": null, "station": "station" }, "geometry": { "type": "Point", "coordinates": [ 2.3674, 48.7869 ] } },
{ "type": "Feature", "properties": { "name": "Villejuif - Paul Vaillant Couturier", "ville": "Paris", "mode": "Metro", "ligne": "Villejuif - Paul Vaillant Couturier", "Line": null, "station": "station" }, "geometry": { "type": "Point", "coordinates": [ 2.3684, 48.7961 ] } },
{ "type": "Feature", "properties": { "name": "Le Kremlin-Bicêtre", "ville": "Paris", "mode": "Metro", "ligne": "Le Kremlin-Bicêtre", "Line": null, "station": "station" }, "geometry": { "type": "Point", "coordinates": [ 2.3622, 48.8103 ] } },
{ "type": "Feature", "properties": { "name": "Saint-Sulpice", "ville": "Paris", "mode": "Metro", "ligne": "Saint-Sulpice", "Line": null, "station": "station" }, "geometry": { "type": "Point", "coordinates": [ 2.3308, 48.8511 ] } },
{ "type": "Feature", "properties": { "name": "Montparnasse-Bienvenüe", "ville": "Paris", "mode": "Metro", "ligne": "Montparnasse-Bienvenüe", "Line": null, "station": "station" }, "geometry": { "type": "Point", "coordinates": [ 2.3243, 48.844 ] } },
{ "type": "Feature", "properties": { "name": "Château Landon", "ville": "Paris", "mode": "Metro", "ligne": "Château Landon", "Line": null, "station": "station" }, "geometry": { "type": "Point", "coordinates": [ 2.3625, 48.8789 ] } },
{ "type": "Feature", "properties": { "name": "Église de Pantin", "ville": "Paris", "mode": "Metro", "ligne": "Église de Pantin", "Line": null, "station": "station" }, "geometry": { "type": "Point", "coordinates": [ 2.4133, 48.8932 ] } },
{ "type": "Feature", "properties": { "name": "Liège", "ville": "Paris", "mode": "Metro", "ligne": "Liège", "Line": null, "station": "station" }, "geometry": { "type": "Point", "coordinates": [ 2.3271, 48.8796 ] } },
{ "type": "Feature", "properties": { "name": "Saint-Denis Porte de Paris", "ville": "Paris", "mode": "Metro", "ligne": "Saint-Denis Porte de Paris", "Line": null, "station": "station" }, "geometry": { "type": "Point", "coordinates": [ 2.3564, 48.9301 ] } },
{ "type": "Feature", "properties": { "name": "Saint-Denis-Université", "ville": "Paris", "mode": "Metro", "ligne": "Saint-Denis-Université", "Line": null, "station": "station" }, "geometry": { "type": "Point", "coordinates": [ 2.3642, 48.9459 ] } },
{ "type": "Feature", "properties": { "name": "Bir-Hakeim", "ville": "Paris", "mode": "Metro", "ligne": "Bir-Hakeim", "Line": null, "station": "station" }, "geometry": { "type": "Point", "coordinates": [ 2.2894, 48.8539 ] } },
{ "type": "Feature", "properties": { "name": "Billancourt", "ville": "Paris", "mode": "Metro", "ligne": "Billancourt", "Line": null, "station": "station" }, "geometry": { "type": "Point", "coordinates": [ 2.2374, 48.8317 ] } },
{ "type": "Feature", "properties": { "name": "Pont de Sèvres", "ville": "Paris", "mode": "Metro", "ligne": "Pont de Sèvres", "Line": null, "station": "station" }, "geometry": { "type": "Point", "coordinates": [ 2.2309, 48.8297 ] } },
{ "type": "Feature", "properties": { "name": "Porte de Choisy", "ville": "Paris", "mode": "Metro", "ligne": "Porte de Choisy", "Line": null, "station": "station" }, "geometry": { "type": "Point", "coordinates": [ 2.3648, 48.8201 ] } },
{ "type": "Feature", "properties": { "name": "Porte d'Ivry", "ville": "Paris", "mode": "Metro", "ligne": "Porte d'Ivry", "Line": null, "station": "station" }, "geometry": { "type": "Point", "coordinates": [ 2.3693, 48.8217 ] } },
{ "type": "Feature", "properties": { "name": "Pierre et Marie Curie", "ville": "Paris", "mode": "Metro", "ligne": "Pierre et Marie Curie", "Line": null, "station": "station" }, "geometry": { "type": "Point", "coordinates": [ 2.3773, 48.8159 ] } },
{ "type": "Feature", "properties": { "name": "Mairie d'Ivry", "ville": "Paris", "mode": "Metro", "ligne": "Mairie d'Ivry", "Line": null, "station": "station" }, "geometry": { "type": "Point", "coordinates": [ 2.384, 48.811 ] } },
{ "type": "Feature", "properties": { "name": "Vaneau", "ville": "Paris", "mode": "Metro", "ligne": "Vaneau", "Line": null, "station": "station" }, "geometry": { "type": "Point", "coordinates": [ 2.3219, 48.8491 ] } },
{ "type": "Feature", "properties": { "name": "Saint-Lazare", "ville": "Paris", "mode": "Metro", "ligne": "Saint-Lazare", "Line": null, "station": "station" }, "geometry": { "type": "Point", "coordinates": [ 2.3279, 48.8757 ] } },
{ "type": "Feature", "properties": { "name": "Ternes", "ville": "Paris", "mode": "Metro", "ligne": "Ternes", "Line": null, "station": "station" }, "geometry": { "type": "Point", "coordinates": [ 2.2991, 48.8782 ] } },
{ "type": "Feature", "properties": { "name": "Créteil — Pointe du Lac", "ville": "Paris", "mode": "Metro", "ligne": "Créteil — Pointe du Lac", "Line": null, "station": "station" }, "geometry": { "type": "Point", "coordinates": [ 2.4644, 48.7687 ] } },
{ "type": "Feature", "properties": { "name": "Barbès - Rochechouart", "ville": "Paris", "mode": "Metro", "ligne": "Barbès - Rochechouart", "Line": null, "station": "station" }, "geometry": { "type": "Point", "coordinates": [ 2.3495, 48.8838 ] } },
{ "type": "Feature", "properties": { "name": "Marcadet - Poissonniers", "ville": "Paris", "mode": "Metro", "ligne": "Marcadet - Poissonniers", "Line": null, "station": "station" }, "geometry": { "type": "Point", "coordinates": [ 2.3497, 48.8916 ] } },
{ "type": "Feature", "properties": { "name": "Gare de Lyon", "ville": "Paris", "mode": "Metro", "ligne": "Gare de Lyon", "Line": null, "station": "station" }, "geometry": { "type": "Point", "coordinates": [ 2.3738, 48.8433 ] } },
{ "type": "Feature", "properties": { "name": "Sèvres-Lecourbe", "ville": "Paris", "mode": "Metro", "ligne": "Sèvres-Lecourbe", "Line": null, "station": "station" }, "geometry": { "type": "Point", "coordinates": [ 2.3096, 48.8456 ] } },
{ "type": "Feature", "properties": { "name": "Bobigny - Pablo Picasso", "ville": "Paris", "mode": "Metro", "ligne": "Bobigny - Pablo Picasso", "Line": null, "station": "station" }, "geometry": { "type": "Point", "coordinates": [ 2.4492, 48.9064 ] } },
{ "type": "Feature", "properties": { "name": "Porte de Clignancourt", "ville": "Paris", "mode": "Metro", "ligne": "Porte de Clignancourt", "Line": null, "station": "station" }, "geometry": { "type": "Point", "coordinates": [ 2.3447, 48.8975 ] } },
{ "type": "Feature", "properties": { "name": "Montparnasse-Bienvenüe", "ville": "Paris", "mode": "Metro", "ligne": "Montparnasse-Bienvenüe", "Line": null, "station": "station" }, "geometry": { "type": "Point", "coordinates": [ 2.3212, 48.8419 ] } },
{ "type": "Feature", "properties": { "name": "Orly Sud", "ville": "Paris", "mode": "Metro", "ligne": "Orly Sud", "Line": null, "station": "station" }, "geometry": { "type": "Point", "coordinates": [ 2.3699, 48.729 ] } },
{ "type": "Feature", "properties": { "name": "Europe", "ville": "Paris", "mode": "Metro", "ligne": "Europe", "Line": null, "station": "station" }, "geometry": { "type": "Point", "coordinates": [ 2.3222, 48.8788 ] } },
{ "type": "Feature", "properties": { "name": "Botzaris", "ville": "Paris", "mode": "Metro", "ligne": "Botzaris", "Line": null, "station": "station" }, "geometry": { "type": "Point", "coordinates": [ 2.3886, 48.8796 ] } },
{ "type": "Feature", "properties": { "name": "Jaurès", "ville": "Paris", "mode": "Metro", "ligne": "Jaurès", "Line": null, "station": "station" }, "geometry": { "type": "Point", "coordinates": [ 2.3703, 48.8826 ] } },
{ "type": "Feature", "properties": { "name": "Place des Fêtes", "ville": "Paris", "mode": "Metro", "ligne": "Place des Fêtes", "Line": null, "station": "station" }, "geometry": { "type": "Point", "coordinates": [ 2.3936, 48.8768 ] } },
{ "type": "Feature", "properties": { "name": "Courcelles", "ville": "Paris", "mode": "Metro", "ligne": "Courcelles", "Line": null, "station": "station" }, "geometry": { "type": "Point", "coordinates": [ 2.3044, 48.8794 ] } },
{ "type": "Feature", "properties": { "name": "Front Populaire", "ville": "Paris", "mode": "Metro", "ligne": "Front Populaire", "Line": null, "station": "station" }, "geometry": { "type": "Point", "coordinates": [ 2.3658, 48.9069 ] } },
{ "type": "Feature", "properties": { "name": "Mairie de Montrouge", "ville": "Paris", "mode": "Metro", "ligne": "Mairie de Montrouge", "Line": null, "station": "station" }, "geometry": { "type": "Point", "coordinates": [ 2.3195, 48.8182 ] } },
{ "type": "Feature", "properties": { "name": "Bobigny-Pantin (Raymond Queneau)", "ville": "Paris", "mode": "Metro", "ligne": "Bobigny-Pantin (Raymond Queneau)", "Line": null, "station": "station" }, "geometry": { "type": "Point", "coordinates": [ 2.4251, 48.8956 ] } },
{ "type": "Feature", "properties": { "name": "Porte Maillot", "ville": "Paris", "mode": "Metro", "ligne": "Porte Maillot", "Line": null, "station": "station" }, "geometry": { "type": "Point", "coordinates": [ 2.2818, 48.878 ] } },
{ "type": "Feature", "properties": { "name": "Cour Saint-Émilion", "ville": "Paris", "mode": "Metro", "ligne": "Cour Saint-Émilion", "Line": null, "station": "station" }, "geometry": { "type": "Point", "coordinates": [ 2.3857, 48.8335 ] } },
{ "type": "Feature", "properties": { "name": "Pont de Neuilly", "ville": "Paris", "mode": "Metro", "ligne": "Pont de Neuilly", "Line": null, "station": "station" }, "geometry": { "type": "Point", "coordinates": [ 2.2597, 48.885 ] } },
{ "type": "Feature", "properties": { "name": "Anvers", "ville": "Paris", "mode": "Metro", "ligne": "Anvers", "Line": null, "station": "station" }, "geometry": { "type": "Point", "coordinates": [ 2.3443, 48.8829 ] } },
{ "type": "Feature", "properties": { "name": "La Chapelle", "ville": "Paris", "mode": "Metro", "ligne": "La Chapelle", "Line": null, "station": "station" }, "geometry": { "type": "Point", "coordinates": [ 2.3603, 48.8844 ] } },
{ "type": "Feature", "properties": { "name": "Gare d'Austerlitz", "ville": "Paris", "mode": "Metro", "ligne": "Gare d'Austerlitz", "Line": null, "station": "station" }, "geometry": { "type": "Point", "coordinates": [ 2.3655, 48.8423 ] } },
{ "type": "Feature", "properties": { "name": "Quai de la Rapée", "ville": "Paris", "mode": "Metro", "ligne": "Quai de la Rapée", "Line": null, "station": "station" }, "geometry": { "type": "Point", "coordinates": [ 2.3659, 48.8465 ] } },
{ "type": "Feature", "properties": { "name": "Sentier", "ville": "Paris", "mode": "Metro", "ligne": "Sentier", "Line": null, "station": "station" }, "geometry": { "type": "Point", "coordinates": [ 2.3456, 48.8677 ] } },
{ "type": "Feature", "properties": { "name": "Hôtel de Ville", "ville": "Paris", "mode": "Metro", "ligne": "Hôtel de Ville", "Line": null, "station": "station" }, "geometry": { "type": "Point", "coordinates": [ 2.3521, 48.8574 ] } },
{ "type": "Feature", "properties": { "name": "Gambetta", "ville": "Paris", "mode": "Metro", "ligne": "Gambetta", "Line": null, "station": "station" }, "geometry": { "type": "Point", "coordinates": [ 2.3984, 48.8649 ] } },
{ "type": "Feature", "properties": { "name": "Trocadéro", "ville": "Paris", "mode": "Metro", "ligne": "Trocadéro", "Line": null, "station": "station" }, "geometry": { "type": "Point", "coordinates": [ 2.2871, 48.863 ] } },
{ "type": "Feature", "properties": { "name": "Pigalle", "ville": "Paris", "mode": "Metro", "ligne": "Pigalle", "Line": null, "station": "station" }, "geometry": { "type": "Point", "coordinates": [ 2.3381, 48.8823 ] } },
{ "type": "Feature", "properties": { "name": "Château Rouge", "ville": "Paris", "mode": "Metro", "ligne": "Château Rouge", "Line": null, "station": "station" }, "geometry": { "type": "Point", "coordinates": [ 2.3496, 48.8873 ] } },
{ "type": "Feature", "properties": { "name": "Jussieu", "ville": "Paris", "mode": "Metro", "ligne": "Jussieu", "Line": null, "station": "station" }, "geometry": { "type": "Point", "coordinates": [ 2.3548, 48.846 ] } },
{ "type": "Feature", "properties": { "name": "Cité", "ville": "Paris", "mode": "Metro", "ligne": "Cité", "Line": null, "station": "station" }, "geometry": { "type": "Point", "coordinates": [ 2.3474, 48.8556 ] } },
{ "type": "Feature", "properties": { "name": "Gare Lille - Flandres", "ville": "Lille", "mode": "Metro", "ligne": "Gare Lille - Flandres", "Line": null, "station": "station" }, "geometry": { "type": "Point", "coordinates": [ 3.071, 50.6375 ] } },
{ "type": "Feature", "properties": { "name": "Triolo", "ville": "Lille", "mode": "Metro", "ligne": "Triolo", "Line": null, "station": "station" }, "geometry": { "type": "Point", "coordinates": [ 3.1407, 50.6169 ] } },
{ "type": "Feature", "properties": { "name": "4 Cantons Stade Pierre Mauroy", "ville": "Lille", "mode": "Metro", "ligne": "4 Cantons Stade Pierre Mauroy", "Line": null, "station": "station" }, "geometry": { "type": "Point", "coordinates": [ 3.139, 50.6054 ] } },
{ "type": "Feature", "properties": { "name": "République - Beaux-Arts", "ville": "Lille", "mode": "Metro", "ligne": "République - Beaux-Arts", "Line": null, "station": "station" }, "geometry": { "type": "Point", "coordinates": [ 3.0608, 50.6316 ] } },
{ "type": "Feature", "properties": { "name": "Rihour", "ville": "Lille", "mode": "Metro", "ligne": "Rihour", "Line": null, "station": "station" }, "geometry": { "type": "Point", "coordinates": [ 3.0628, 50.6354 ] } },
{ "type": "Feature", "properties": { "name": "Villeneuve d'Ascq Hôtel de Ville", "ville": "Lille", "mode": "Metro", "ligne": "Villeneuve d'Ascq Hôtel de Ville", "Line": null, "station": "station" }, "geometry": { "type": "Point", "coordinates": [ 3.1308, 50.6191 ] } },
{ "type": "Feature", "properties": { "name": "Pont de Bois", "ville": "Lille", "mode": "Metro", "ligne": "Pont de Bois", "Line": null, "station": "station" }, "geometry": { "type": "Point", "coordinates": [ 3.128, 50.6242 ] } },
{ "type": "Feature", "properties": { "name": "Porte des Postes", "ville": "Lille", "mode": "Metro", "ligne": "Porte des Postes", "Line": null, "station": "station" }, "geometry": { "type": "Point", "coordinates": [ 3.0503, 50.6184 ] } },
{ "type": "Feature", "properties": { "name": "Lezennes", "ville": "Lille", "mode": "Metro", "ligne": "Lezennes", "Line": null, "station": "station" }, "geometry": { "type": "Point", "coordinates": [ 3.1161, 50.6252 ] } },
{ "type": "Feature", "properties": { "name": "Hellemmes", "ville": "Lille", "mode": "Metro", "ligne": "Hellemmes", "Line": null, "station": "station" }, "geometry": { "type": "Point", "coordinates": [ 3.109, 50.6271 ] } },
{ "type": "Feature", "properties": { "name": "Marbrerie", "ville": "Lille", "mode": "Metro", "ligne": "Marbrerie", "Line": null, "station": "station" }, "geometry": { "type": "Point", "coordinates": [ 3.0979, 50.6301 ] } },
{ "type": "Feature", "properties": { "name": "Fives", "ville": "Lille", "mode": "Metro", "ligne": "Fives", "Line": null, "station": "station" }, "geometry": { "type": "Point", "coordinates": [ 3.0912, 50.6328 ] } },
{ "type": "Feature", "properties": { "name": "Roubaix - Charles de Gaulle", "ville": "Lille", "mode": "Metro", "ligne": "Roubaix - Charles de Gaulle", "Line": null, "station": "station" }, "geometry": { "type": "Point", "coordinates": [ 3.1701, 50.6865 ] } },
{ "type": "Feature", "properties": { "name": "Caulier", "ville": "Lille", "mode": "Metro", "ligne": "Caulier", "Line": null, "station": "station" }, "geometry": { "type": "Point", "coordinates": [ 3.0868, 50.6367 ] } },
{ "type": "Feature", "properties": { "name": "Saint-Maurice Pellevoisin", "ville": "Lille", "mode": "Metro", "ligne": "Saint-Maurice Pellevoisin", "Line": null, "station": "station" }, "geometry": { "type": "Point", "coordinates": [ 3.0887, 50.6423 ] } },
{ "type": "Feature", "properties": { "name": "Mairie de Lille", "ville": "Lille", "mode": "Metro", "ligne": "Mairie de Lille", "Line": null, "station": "station" }, "geometry": { "type": "Point", "coordinates": [ 3.0707, 50.6328 ] } },
{ "type": "Feature", "properties": { "name": "Porte de Valenciennes", "ville": "Lille", "mode": "Metro", "ligne": "Porte de Valenciennes", "Line": null, "station": "station" }, "geometry": { "type": "Point", "coordinates": [ 3.0789, 50.6211 ] } },
{ "type": "Feature", "properties": { "name": "Roubaix - Grand Place", "ville": "Lille", "mode": "Metro", "ligne": "Roubaix - Grand Place", "Line": null, "station": "station" }, "geometry": { "type": "Point", "coordinates": [ 3.1748, 50.6918 ] } },
{ "type": "Feature", "properties": { "name": "Gare - Jean Lebas", "ville": "Lille", "mode": "Metro", "ligne": "Gare - Jean Lebas", "Line": null, "station": "station" }, "geometry": { "type": "Point", "coordinates": [ 3.164, 50.6954 ] } },
{ "type": "Feature", "properties": { "name": "Alsace", "ville": "Lille", "mode": "Metro", "ligne": "Alsace", "Line": null, "station": "station" }, "geometry": { "type": "Point", "coordinates": [ 3.161, 50.7007 ] } },
{ "type": "Feature", "properties": { "name": "Canteleu", "ville": "Lille", "mode": "Metro", "ligne": "Canteleu", "Line": null, "station": "station" }, "geometry": { "type": "Point", "coordinates": [ 3.0244, 50.6371 ] } },
{ "type": "Feature", "properties": { "name": "Porte d'Arras", "ville": "Lille", "mode": "Metro", "ligne": "Porte d'Arras", "Line": null, "station": "station" }, "geometry": { "type": "Point", "coordinates": [ 3.0623, 50.6176 ] } },
{ "type": "Feature", "properties": { "name": "Porte de Douai", "ville": "Lille", "mode": "Metro", "ligne": "Porte de Douai", "Line": null, "station": "station" }, "geometry": { "type": "Point", "coordinates": [ 3.0721, 50.6181 ] } },
{ "type": "Feature", "properties": { "name": "Wasquehal - Hôtel de Ville", "ville": "Lille", "mode": "Metro", "ligne": "Wasquehal - Hôtel de Ville", "Line": null, "station": "station" }, "geometry": { "type": "Point", "coordinates": [ 3.1315, 50.6698 ] } },
{ "type": "Feature", "properties": { "name": "Wasquehal - Pavé de Lille", "ville": "Lille", "mode": "Metro", "ligne": "Wasquehal - Pavé de Lille", "Line": null, "station": "station" }, "geometry": { "type": "Point", "coordinates": [ 3.1301, 50.664 ] } },
{ "type": "Feature", "properties": { "name": "Jean Jaurès", "ville": "Lille", "mode": "Metro", "ligne": "Jean Jaurès", "Line": null, "station": "station" }, "geometry": { "type": "Point", "coordinates": [ 3.1348, 50.6585 ] } },
{ "type": "Feature", "properties": { "name": "Les Prés", "ville": "Lille", "mode": "Metro", "ligne": "Les Prés", "Line": null, "station": "station" }, "geometry": { "type": "Point", "coordinates": [ 3.1264, 50.6501 ] } },
{ "type": "Feature", "properties": { "name": "Fort de Mons", "ville": "Lille", "mode": "Metro", "ligne": "Fort de Mons", "Line": null, "station": "station" }, "geometry": { "type": "Point", "coordinates": [ 3.1193, 50.6421 ] } },
{ "type": "Feature", "properties": { "name": "Mairie de Mons", "ville": "Lille", "mode": "Metro", "ligne": "Mairie de Mons", "Line": null, "station": "station" }, "geometry": { "type": "Point", "coordinates": [ 3.1098, 50.6423 ] } },
{ "type": "Feature", "properties": { "name": "Mons Sarts", "ville": "Lille", "mode": "Metro", "ligne": "Mons Sarts", "Line": null, "station": "station" }, "geometry": { "type": "Point", "coordinates": [ 3.0993, 50.6421 ] } },
{ "type": "Feature", "properties": { "name": "Port de Lille", "ville": "Lille", "mode": "Metro", "ligne": "Port de Lille", "Line": null, "station": "station" }, "geometry": { "type": "Point", "coordinates": [ 3.0358, 50.6299 ] } },
{ "type": "Feature", "properties": { "name": "Montebello", "ville": "Lille", "mode": "Metro", "ligne": "Montebello", "Line": null, "station": "station" }, "geometry": { "type": "Point", "coordinates": [ 3.0454, 50.622 ] } },
{ "type": "Feature", "properties": { "name": "Gambetta", "ville": "Lille", "mode": "Metro", "ligne": "Gambetta", "Line": null, "station": "station" }, "geometry": { "type": "Point", "coordinates": [ 3.0527, 50.6269 ] } },
{ "type": "Feature", "properties": { "name": "Bois Blancs", "ville": "Lille", "mode": "Metro", "ligne": "Bois Blancs", "Line": null, "station": "station" }, "geometry": { "type": "Point", "coordinates": [ 3.0308, 50.6339 ] } },
{ "type": "Feature", "properties": { "name": "Lomme - Lambersart", "ville": "Lille", "mode": "Metro", "ligne": "Lomme - Lambersart", "Line": null, "station": "station" }, "geometry": { "type": "Point", "coordinates": [ 3.0187, 50.6407 ] } },
{ "type": "Feature", "properties": { "name": "Pont Supérieur", "ville": "Lille", "mode": "Metro", "ligne": "Pont Supérieur", "Line": null, "station": "station" }, "geometry": { "type": "Point", "coordinates": [ 3.0139, 50.6444 ] } },
{ "type": "Feature", "properties": { "name": "Mitterie", "ville": "Lille", "mode": "Metro", "ligne": "Mitterie", "Line": null, "station": "station" }, "geometry": { "type": "Point", "coordinates": [ 3.0074, 50.6468 ] } },
{ "type": "Feature", "properties": { "name": "Maison des Enfants", "ville": "Lille", "mode": "Metro", "ligne": "Maison des Enfants", "Line": null, "station": "station" }, "geometry": { "type": "Point", "coordinates": [ 2.9952, 50.6463 ] } },
{ "type": "Feature", "properties": { "name": "Bourg", "ville": "Lille", "mode": "Metro", "ligne": "Bourg", "Line": null, "station": "station" }, "geometry": { "type": "Point", "coordinates": [ 2.9852, 50.6456 ] } },
{ "type": "Feature", "properties": { "name": "Saint-Philibert", "ville": "Lille", "mode": "Metro", "ligne": "Saint-Philibert", "Line": null, "station": "station" }, "geometry": { "type": "Point", "coordinates": [ 2.9743, 50.6521 ] } },
{ "type": "Feature", "properties": { "name": "CHR Oscar Lambret", "ville": "Lille", "mode": "Metro", "ligne": "CHR Oscar Lambret", "Line": null, "station": "station" }, "geometry": { "type": "Point", "coordinates": [ 3.0364, 50.6131 ] } },
{ "type": "Feature", "properties": { "name": "CHR B. Calmette", "ville": "Lille", "mode": "Metro", "ligne": "CHR B. Calmette", "Line": null, "station": "station" }, "geometry": { "type": "Point", "coordinates": [ 3.039, 50.608 ] } },
{ "type": "Feature", "properties": { "name": "Lille Grand Palais", "ville": "Lille", "mode": "Metro", "ligne": "Lille Grand Palais", "Line": null, "station": "station" }, "geometry": { "type": "Point", "coordinates": [ 3.0749, 50.6297 ] } },
{ "type": "Feature", "properties": { "name": "Mercure", "ville": "Lille", "mode": "Metro", "ligne": "Mercure", "Line": null, "station": "station" }, "geometry": { "type": "Point", "coordinates": [ 3.1605, 50.7048 ] } },
{ "type": "Feature", "properties": { "name": "Carliers", "ville": "Lille", "mode": "Metro", "ligne": "Carliers", "Line": null, "station": "station" }, "geometry": { "type": "Point", "coordinates": [ 3.1597, 50.711 ] } },
{ "type": "Feature", "properties": { "name": "Tourcoing - Sébastopol", "ville": "Lille", "mode": "Metro", "ligne": "Tourcoing - Sébastopol", "Line": null, "station": "station" }, "geometry": { "type": "Point", "coordinates": [ 3.1626, 50.7173 ] } },
{ "type": "Feature", "properties": { "name": "Tourcoing - Centre", "ville": "Lille", "mode": "Metro", "ligne": "Tourcoing - Centre", "Line": null, "station": "station" }, "geometry": { "type": "Point", "coordinates": [ 3.16, 50.7209 ] } },
{ "type": "Feature", "properties": { "name": "Colbert", "ville": "Lille", "mode": "Metro", "ligne": "Colbert", "Line": null, "station": "station" }, "geometry": { "type": "Point", "coordinates": [ 3.1567, 50.7258 ] } },
{ "type": "Feature", "properties": { "name": "C.H. Dron", "ville": "Lille", "mode": "Metro", "ligne": "C.H. Dron", "Line": null, "station": "station" }, "geometry": { "type": "Point", "coordinates": [ 3.1809, 50.7434 ] } },
{ "type": "Feature", "properties": { "name": "Phalempins", "ville": "Lille", "mode": "Metro", "ligne": "Phalempins", "Line": null, "station": "station" }, "geometry": { "type": "Point", "coordinates": [ 3.1576, 50.7323 ] } },
{ "type": "Feature", "properties": { "name": "Bourgogne", "ville": "Lille", "mode": "Metro", "ligne": "Bourgogne", "Line": null, "station": "station" }, "geometry": { "type": "Point", "coordinates": [ 3.1797, 50.7395 ] } },
{ "type": "Feature", "properties": { "name": "Pont de Neuville", "ville": "Lille", "mode": "Metro", "ligne": "Pont de Neuville", "Line": null, "station": "station" }, "geometry": { "type": "Point", "coordinates": [ 3.1706, 50.7368 ] } },
{ "type": "Feature", "properties": { "name": "Cormontaigne", "ville": "Lille", "mode": "Metro", "ligne": "Cormontaigne", "Line": null, "station": "station" }, "geometry": { "type": "Point", "coordinates": [ 3.0403, 50.6262 ] } },
{ "type": "Feature", "properties": { "name": "Eurotéléport", "ville": "Lille", "mode": "Metro", "ligne": "Eurotéléport", "Line": null, "station": "station" }, "geometry": { "type": "Point", "coordinates": [ 3.1793, 50.6908 ] } },
{ "type": "Feature", "properties": { "name": "Cité Scientifique Professeur Gabillard", "ville": "Lille", "mode": "Metro", "ligne": "Cité Scientifique Professeur Gabillard", "Line": null, "station": "station" }, "geometry": { "type": "Point", "coordinates": [ 3.1424, 50.6116 ] } },
{ "type": "Feature", "properties": { "name": "Croix Centre", "ville": "Lille", "mode": "Metro", "ligne": "Croix Centre", "Line": null, "station": "station" }, "geometry": { "type": "Point", "coordinates": [ 3.1461, 50.6747 ] } },
{ "type": "Feature", "properties": { "name": "Croix Mairie", "ville": "Lille", "mode": "Metro", "ligne": "Croix Mairie", "Line": null, "station": "station" }, "geometry": { "type": "Point", "coordinates": [ 3.1563, 50.6793 ] } },
{ "type": "Feature", "properties": { "name": "Wazemmes", "ville": "Lille", "mode": "Metro", "ligne": "Wazemmes", "Line": null, "station": "station" }, "geometry": { "type": "Point", "coordinates": [ 3.0516, 50.6235 ] } },
{ "type": "Feature", "properties": { "name": "Lille Europe", "ville": "Lille", "mode": "Metro", "ligne": "Lille Europe", "Line": null, "station": "station" }, "geometry": { "type": "Point", "coordinates": [ 3.0764, 50.6393 ] } },
{ "type": "Feature", "properties": { "name": "Épeule - Montesquieu", "ville": "Lille", "mode": "Metro", "ligne": "Épeule - Montesquieu", "Line": null, "station": "station" }, "geometry": { "type": "Point", "coordinates": [ 3.1631, 50.6839 ] } },
{ "type": "Feature", "properties": { "name": "Gorge de Loup", "ville": "Lyon", "mode": "Metro", "ligne": "Gorge de Loup", "Line": null, "station": "station" }, "geometry": { "type": "Point", "coordinates": [ 4.8055, 45.7664 ] } },
{ "type": "Feature", "properties": { "name": "Sans Souci", "ville": "Lyon", "mode": "Metro", "ligne": "Sans Souci", "Line": null, "station": "station" }, "geometry": { "type": "Point", "coordinates": [ 4.8652, 45.7476 ] } },
{ "type": "Feature", "properties": { "name": "Guillotière", "ville": "Lyon", "mode": "Metro", "ligne": "Guillotière", "Line": null, "station": "station" }, "geometry": { "type": "Point", "coordinates": [ 4.8428, 45.7554 ] } },
{ "type": "Feature", "properties": { "name": "Vieux Lyon - Cathédrale Saint-Jean", "ville": "Lyon", "mode": "Metro", "ligne": "Vieux Lyon - Cathédrale Saint-Jean", "Line": null, "station": "station" }, "geometry": { "type": "Point", "coordinates": [ 4.8256, 45.7602 ] } },
{ "type": "Feature", "properties": { "name": "Monplaisir - Lumière", "ville": "Lyon", "mode": "Metro", "ligne": "Monplaisir - Lumière", "Line": null, "station": "station" }, "geometry": { "type": "Point", "coordinates": [ 4.8714, 45.7455 ] } },
{ "type": "Feature", "properties": { "name": "Bellecour", "ville": "Lyon", "mode": "Metro", "ligne": "Bellecour", "Line": null, "station": "station" }, "geometry": { "type": "Point", "coordinates": [ 4.8331, 45.7576 ] } },
{ "type": "Feature", "properties": { "name": "Garibaldi", "ville": "Lyon", "mode": "Metro", "ligne": "Garibaldi", "Line": null, "station": "station" }, "geometry": { "type": "Point", "coordinates": [ 4.8535, 45.7516 ] } },
{ "type": "Feature", "properties": { "name": "Saxe - Gambetta", "ville": "Lyon", "mode": "Metro", "ligne": "Saxe - Gambetta", "Line": null, "station": "station" }, "geometry": { "type": "Point", "coordinates": [ 4.8467, 45.7533 ] } },
{ "type": "Feature", "properties": { "name": "Valmy", "ville": "Lyon", "mode": "Metro", "ligne": "Valmy", "Line": null, "station": "station" }, "geometry": { "type": "Point", "coordinates": [ 4.8055, 45.7746 ] } },
{ "type": "Feature", "properties": { "name": "Grange Blanche", "ville": "Lyon", "mode": "Metro", "ligne": "Grange Blanche", "Line": null, "station": "station" }, "geometry": { "type": "Point", "coordinates": [ 4.8789, 45.743 ] } },
{ "type": "Feature", "properties": { "name": "Laennec", "ville": "Lyon", "mode": "Metro", "ligne": "Laennec", "Line": null, "station": "station" }, "geometry": { "type": "Point", "coordinates": [ 4.8866, 45.7384 ] } },
{ "type": "Feature", "properties": { "name": "Cordeliers", "ville": "Lyon", "mode": "Metro", "ligne": "Cordeliers", "Line": null, "station": "station" }, "geometry": { "type": "Point", "coordinates": [ 4.8358, 45.7633 ] } },
{ "type": "Feature", "properties": { "name": "Mermoz - Pinel", "ville": "Lyon", "mode": "Metro", "ligne": "Mermoz - Pinel", "Line": null, "station": "station" }, "geometry": { "type": "Point", "coordinates": [ 4.8873, 45.7306 ] } },
{ "type": "Feature", "properties": { "name": "Hôtel de Ville - Louis Pradel", "ville": "Lyon", "mode": "Metro", "ligne": "Hôtel de Ville - Louis Pradel", "Line": null, "station": "station" }, "geometry": { "type": "Point", "coordinates": [ 4.8361, 45.7673 ] } },
{ "type": "Feature", "properties": { "name": "Parilly", "ville": "Lyon", "mode": "Metro", "ligne": "Parilly", "Line": null, "station": "station" }, "geometry": { "type": "Point", "coordinates": [ 4.8876, 45.7195 ] } },
{ "type": "Feature", "properties": { "name": "Jean Macé", "ville": "Lyon", "mode": "Metro", "ligne": "Jean Macé", "Line": null, "station": "station" }, "geometry": { "type": "Point", "coordinates": [ 4.8423, 45.7459 ] } },
{ "type": "Feature", "properties": { "name": "Debourg", "ville": "Lyon", "mode": "Metro", "ligne": "Debourg", "Line": null, "station": "station" }, "geometry": { "type": "Point", "coordinates": [ 4.8335, 45.7311 ] } },
{ "type": "Feature", "properties": { "name": "Croix-Paquet", "ville": "Lyon", "mode": "Metro", "ligne": "Croix-Paquet", "Line": null, "station": "station" }, "geometry": { "type": "Point", "coordinates": [ 4.8362, 45.771 ] } },
{ "type": "Feature", "properties": { "name": "Croix-Rousse", "ville": "Lyon", "mode": "Metro", "ligne": "Croix-Rousse", "Line": null, "station": "station" }, "geometry": { "type": "Point", "coordinates": [ 4.832, 45.7745 ] } },
{ "type": "Feature", "properties": { "name": "Saint-Just", "ville": "Lyon", "mode": "Metro", "ligne": "Saint-Just", "Line": null, "station": "station" }, "geometry": { "type": "Point", "coordinates": [ 4.8164, 45.7572 ] } },
{ "type": "Feature", "properties": { "name": "Fourvière", "ville": "Lyon", "mode": "Metro", "ligne": "Fourvière", "Line": null, "station": "station" }, "geometry": { "type": "Point", "coordinates": [ 4.8215, 45.7624 ] } },
{ "type": "Feature", "properties": { "name": "Stade de Gerland", "ville": "Lyon", "mode": "Metro", "ligne": "Stade de Gerland", "Line": null, "station": "station" }, "geometry": { "type": "Point", "coordinates": [ 4.8309, 45.7267 ] } },
{ "type": "Feature", "properties": { "name": "Hénon", "ville": "Lyon", "mode": "Metro", "ligne": "Hénon", "Line": null, "station": "station" }, "geometry": { "type": "Point", "coordinates": [ 4.8275, 45.7794 ] } },
{ "type": "Feature", "properties": { "name": "Cuire", "ville": "Lyon", "mode": "Metro", "ligne": "Cuire", "Line": null, "station": "station" }, "geometry": { "type": "Point", "coordinates": [ 4.8329, 45.7855 ] } },
{ "type": "Feature", "properties": { "name": "Ampère - Victor Hugo", "ville": "Lyon", "mode": "Metro", "ligne": "Ampère - Victor Hugo", "Line": null, "station": "station" }, "geometry": { "type": "Point", "coordinates": [ 4.8292, 45.753 ] } },
{ "type": "Feature", "properties": { "name": "Masséna", "ville": "Lyon", "mode": "Metro", "ligne": "Masséna", "Line": null, "station": "station" }, "geometry": { "type": "Point", "coordinates": [ 4.8534, 45.7696 ] } },
{ "type": "Feature", "properties": { "name": "Foch", "ville": "Lyon", "mode": "Metro", "ligne": "Foch", "Line": null, "station": "station" }, "geometry": { "type": "Point", "coordinates": [ 4.8444, 45.7687 ] } },
{ "type": "Feature", "properties": { "name": "Place Guichard - Bourse du Travail", "ville": "Lyon", "mode": "Metro", "ligne": "Place Guichard - Bourse du Travail", "Line": null, "station": "station" }, "geometry": { "type": "Point", "coordinates": [ 4.8474, 45.7592 ] } },
{ "type": "Feature", "properties": { "name": "Gare Part-Dieu - Vivier Merle", "ville": "Lyon", "mode": "Metro", "ligne": "Gare Part-Dieu - Vivier Merle", "Line": null, "station": "station" }, "geometry": { "type": "Point", "coordinates": [ 4.8574, 45.7616 ] } },
{ "type": "Feature", "properties": { "name": "Brotteaux", "ville": "Lyon", "mode": "Metro", "ligne": "Brotteaux", "Line": null, "station": "station" }, "geometry": { "type": "Point", "coordinates": [ 4.8594, 45.7671 ] } },
{ "type": "Feature", "properties": { "name": "Charpennes - Charles Hernu", "ville": "Lyon", "mode": "Metro", "ligne": "Charpennes - Charles Hernu", "Line": null, "station": "station" }, "geometry": { "type": "Point", "coordinates": [ 4.8632, 45.7704 ] } },
{ "type": "Feature", "properties": { "name": "Gare de Vénissieux", "ville": "Lyon", "mode": "Metro", "ligne": "Gare de Vénissieux", "Line": null, "station": "station" }, "geometry": { "type": "Point", "coordinates": [ 4.888, 45.7055 ] } },
{ "type": "Feature", "properties": { "name": "République - Villeurbanne", "ville": "Lyon", "mode": "Metro", "ligne": "République - Villeurbanne", "Line": null, "station": "station" }, "geometry": { "type": "Point", "coordinates": [ 4.874, 45.7706 ] } },
{ "type": "Feature", "properties": { "name": "Gratte-Ciel", "ville": "Lyon", "mode": "Metro", "ligne": "Gratte-Ciel", "Line": null, "station": "station" }, "geometry": { "type": "Point", "coordinates": [ 4.8823, 45.769 ] } },
{ "type": "Feature", "properties": { "name": "Flachet - Alain Gilles", "ville": "Lyon", "mode": "Metro", "ligne": "Flachet - Alain Gilles", "Line": null, "station": "station" }, "geometry": { "type": "Point", "coordinates": [ 4.8893, 45.7677 ] } },
{ "type": "Feature", "properties": { "name": "Cusset", "ville": "Lyon", "mode": "Metro", "ligne": "Cusset", "Line": null, "station": "station" }, "geometry": { "type": "Point", "coordinates": [ 4.9008, 45.7656 ] } },
{ "type": "Feature", "properties": { "name": "Laurent Bonnevay - Astroballe", "ville": "Lyon", "mode": "Metro", "ligne": "Laurent Bonnevay - Astroballe", "Line": null, "station": "station" }, "geometry": { "type": "Point", "coordinates": [ 4.9088, 45.7641 ] } },
{ "type": "Feature", "properties": { "name": "Vaulx-en-Velin - La Soie", "ville": "Lyon", "mode": "Metro", "ligne": "Vaulx-en-Velin - La Soie", "Line": null, "station": "station" }, "geometry": { "type": "Point", "coordinates": [ 4.922, 45.7612 ] } },
{ "type": "Feature", "properties": { "name": "Gare d'Oullins", "ville": "Lyon", "mode": "Metro", "ligne": "Gare d'Oullins", "Line": null, "station": "station" }, "geometry": { "type": "Point", "coordinates": [ 4.8145, 45.7167 ] } },
{ "type": "Feature", "properties": { "name": "Place Jean Jaurès", "ville": "Lyon", "mode": "Metro", "ligne": "Place Jean Jaurès", "Line": null, "station": "station" }, "geometry": { "type": "Point", "coordinates": [ 4.8373, 45.7376 ] } },
{ "type": "Feature", "properties": { "name": "Gare de Vaise", "ville": "Lyon", "mode": "Metro", "ligne": "Gare de Vaise", "Line": null, "station": "station" }, "geometry": { "type": "Point", "coordinates": [ 4.8045, 45.7806 ] } },
{ "type": "Feature", "properties": { "name": "Perrache", "ville": "Lyon", "mode": "Metro", "ligne": "Perrache", "Line": null, "station": "station" }, "geometry": { "type": "Point", "coordinates": [ 4.8268, 45.7496 ] } },
{ "type": "Feature", "properties": { "name": "Minimes - Théâtres romains", "ville": "Lyon", "mode": "Metro", "ligne": "Minimes - Théâtres romains", "Line": null, "station": "station" }, "geometry": { "type": "Point", "coordinates": [ 4.8214, 45.7586 ] } },
{ "type": "Feature", "properties": { "name": "Rond-Point du Prado", "ville": "Marseille", "mode": "Metro", "ligne": "Rond-Point du Prado", "Line": null, "station": "station" }, "geometry": { "type": "Point", "coordinates": [ 5.3926, 43.2713 ] } },
{ "type": "Feature", "properties": { "name": "La Rose", "ville": "Marseille", "mode": "Metro", "ligne": "La Rose", "Line": null, "station": "station" }, "geometry": { "type": "Point", "coordinates": [ 5.4297, 43.3331 ] } },
{ "type": "Feature", "properties": { "name": "National", "ville": "Marseille", "mode": "Metro", "ligne": "National", "Line": null, "station": "station" }, "geometry": { "type": "Point", "coordinates": [ 5.373, 43.3152 ] } },
{ "type": "Feature", "properties": { "name": "Bougainville", "ville": "Marseille", "mode": "Metro", "ligne": "Bougainville", "Line": null, "station": "station" }, "geometry": { "type": "Point", "coordinates": [ 5.3714, 43.3208 ] } },
{ "type": "Feature", "properties": { "name": "Joliette", "ville": "Marseille", "mode": "Metro", "ligne": "Joliette", "Line": null, "station": "station" }, "geometry": { "type": "Point", "coordinates": [ 5.3679, 43.3039 ] } },
{ "type": "Feature", "properties": { "name": "Jules Guesde", "ville": "Marseille", "mode": "Metro", "ligne": "Jules Guesde", "Line": null, "station": "station" }, "geometry": { "type": "Point", "coordinates": [ 5.374, 43.3019 ] } },
{ "type": "Feature", "properties": { "name": "Noailles", "ville": "Marseille", "mode": "Metro", "ligne": "Noailles", "Line": null, "station": "station" }, "geometry": { "type": "Point", "coordinates": [ 5.3812, 43.2968 ] } },
{ "type": "Feature", "properties": { "name": "Frais Vallon", "ville": "Marseille", "mode": "Metro", "ligne": "Frais Vallon", "Line": null, "station": "station" }, "geometry": { "type": "Point", "coordinates": [ 5.4232, 43.3255 ] } },
{ "type": "Feature", "properties": { "name": "Malpassé", "ville": "Marseille", "mode": "Metro", "ligne": "Malpassé", "Line": null, "station": "station" }, "geometry": { "type": "Point", "coordinates": [ 5.4164, 43.321 ] } },
{ "type": "Feature", "properties": { "name": "Saint-Just", "ville": "Marseille", "mode": "Metro", "ligne": "Saint-Just", "Line": null, "station": "station" }, "geometry": { "type": "Point", "coordinates": [ 5.4064, 43.3155 ] } },
{ "type": "Feature", "properties": { "name": "Chartreux", "ville": "Marseille", "mode": "Metro", "ligne": "Chartreux", "Line": null, "station": "station" }, "geometry": { "type": "Point", "coordinates": [ 5.4015, 43.3091 ] } },
{ "type": "Feature", "properties": { "name": "Cinq Avenues Longchamp", "ville": "Marseille", "mode": "Metro", "ligne": "Cinq Avenues Longchamp", "Line": null, "station": "station" }, "geometry": { "type": "Point", "coordinates": [ 5.3963, 43.3042 ] } },
{ "type": "Feature", "properties": { "name": "Réformés - Canebière", "ville": "Marseille", "mode": "Metro", "ligne": "Réformés - Canebière", "Line": null, "station": "station" }, "geometry": { "type": "Point", "coordinates": [ 5.3863, 43.3005 ] } },
{ "type": "Feature", "properties": { "name": "Colbert", "ville": "Marseille", "mode": "Metro", "ligne": "Colbert", "Line": null, "station": "station" }, "geometry": { "type": "Point", "coordinates": [ 5.3743, 43.3003 ] } },
{ "type": "Feature", "properties": { "name": "Vieux Port", "ville": "Marseille", "mode": "Metro", "ligne": "Vieux Port", "Line": null, "station": "station" }, "geometry": { "type": "Point", "coordinates": [ 5.3742, 43.2956 ] } },
{ "type": "Feature", "properties": { "name": "Baille", "ville": "Marseille", "mode": "Metro", "ligne": "Baille", "Line": null, "station": "station" }, "geometry": { "type": "Point", "coordinates": [ 5.392, 43.2881 ] } },
{ "type": "Feature", "properties": { "name": "La Timone", "ville": "Marseille", "mode": "Metro", "ligne": "La Timone", "Line": null, "station": "station" }, "geometry": { "type": "Point", "coordinates": [ 5.4004, 43.2911 ] } },
{ "type": "Feature", "properties": { "name": "La Fourragère", "ville": "Marseille", "mode": "Metro", "ligne": "La Fourragère", "Line": null, "station": "station" }, "geometry": { "type": "Point", "coordinates": [ 5.4241, 43.3038 ] } },
{ "type": "Feature", "properties": { "name": "Louis Armand", "ville": "Marseille", "mode": "Metro", "ligne": "Louis Armand", "Line": null, "station": "station" }, "geometry": { "type": "Point", "coordinates": [ 5.4136, 43.3 ] } },
{ "type": "Feature", "properties": { "name": "La Blancarde", "ville": "Marseille", "mode": "Metro", "ligne": "La Blancarde", "Line": null, "station": "station" }, "geometry": { "type": "Point", "coordinates": [ 5.4062, 43.2955 ] } },
{ "type": "Feature", "properties": { "name": "Saint-Barnabé", "ville": "Marseille", "mode": "Metro", "ligne": "Saint-Barnabé", "Line": null, "station": "station" }, "geometry": { "type": "Point", "coordinates": [ 5.4188, 43.3033 ] } },