{
"type": "FeatureCollection",
"crs": { "type": "name", "properties": { "name": "urn:ogc:def:crs:OGC:1.3:CRS84" } },
                                                                                
"features": [
{ "type": "Feature", "properties": { "name": "Châtillon-Montrouge", "ville": "Paris", "mode": "Metro", "ligne": "Châtillon-Montrouge", "Line": null }, "geometry": { "type": "Point", "coordinates": [ 2.30159, 48.81081 ] } },
{ "type": "Feature", "properties": { "name": "Malakoff - Rue Étienne Dolet", "ville": "Paris", "mode": "Metro", "ligne": "Malakoff - Rue Étienne Dolet", "Line": null }, "geometry": { "type": "Point", "coordinates": [ 2.29703, 48.81534 ] } },
{ "type": "Feature", "properties": { "name": "Esplanade de La Défense", "ville": "Paris", "mode": "Metro", "ligne": "Esplanade de La Défense", "Line": null }, "geometry": { "type": "Point", "coordinates": [ 2.24947, 48.88824 ] } },
{ "type": "Feature", "properties": { "name": "Les Sablons", "ville": "Paris", "mode": "Metro", "ligne": "Les Sablons", "Line": null }, "geometry": { "type": "Point", "coordinates": [ 2.27212, 48.88109 ] } },
{ "type": "Feature", "properties": { "name": "Argentine", "ville": "Paris", "mode": "Metro", "ligne": "Argentine", "Line": null }, "geometry": { "type": "Point", "coordinates": [ 2.28937, 48.87559 ] } },
{ "type": "Feature", "properties": { "name": "George V", "ville": "Paris", "mode": "Metro", "ligne": "George V", "Line": null }, "geometry": { "type": "Point", "coordinates": [ 2.30045, 48.8721 ] } },
{ "type": "Feature", "properties": { "name": "Franklin D. Roosevelt", "ville": "Paris", "mode": "Metro", "ligne": "Franklin D. Roosevelt", "Line": null }, "geometry": { "type": "Point", "coordinates": [ 2.30993, 48.86903 ] } },
{ "type": "Feature", "properties": { "name": "Concorde", "ville": "Paris", "mode": "Metro", "ligne": "Concorde", "Line": null }, "geometry": { "type": "Point", "coordinates": [ 2.32274, 48.86654 ] } },
{ "type": "Feature", "properties": { "name": "Tuileries", "ville": "Paris", "mode": "Metro", "ligne": "Tuileries", "Line": null }, "geometry": { "type": "Point", "coordinates": [ 2.33046, 48.86428 ] } },
{ "type": "Feature", "properties": { "name": "Palais Royal - Musée du Louvre", "ville": "Paris", "mode": "Metro", "ligne": "Palais Royal - Musée du Louvre", "Line": null }, "geometry": { "type": "Point", "coordinates": [ 2.33634, 48.86238 ] } },
{ "type": "Feature", "properties": { "name": "Louvre — Rivoli", "ville": "Paris", "mode": "Metro", "ligne": "Louvre — Rivoli", "Line": null }, "geometry": { "type": "Point", "coordinates": [ 2.34113, 48.86081 ] } },
{ "type": "Feature", "properties": { "name": "Châtelet", "ville": "Paris", "mode": "Metro", "ligne": "Châtelet", "Line": null }, "geometry": { "type": "Point", "coordinates": [ 2.34741, 48.85878 ] } },
{ "type": "Feature", "properties": { "name": "Saint-Paul", "ville": "Paris", "mode": "Metro", "ligne": "Saint-Paul", "Line": null }, "geometry": { "type": "Point", "coordinates": [ 2.36036, 48.85539 ] } },
{ "type": "Feature", "properties": { "name": "Bastille", "ville": "Paris", "mode": "Metro", "ligne": "Bastille", "Line": null }, "geometry": { "type": "Point", "coordinates": [ 2.36865, 48.85201 ] } },
{ "type": "Feature", "properties": { "name": "Gare de Lyon (métro 1)", "ville": "Paris", "mode": "Metro", "ligne": "Gare de Lyon (métro 1)", "Line": null }, "geometry": { "type": "Point", "coordinates": [ 2.3742, 48.84588 ] } },
{ "type": "Feature", "properties": { "name": "Reuilly — Diderot", "ville": "Paris", "mode": "Metro", "ligne": "Reuilly — Diderot", "Line": null }, "geometry": { "type": "Point", "coordinates": [ 2.38666, 48.84736 ] } },
{ "type": "Feature", "properties": { "name": "Porte de Vincennes", "ville": "Paris", "mode": "Metro", "ligne": "Porte de Vincennes", "Line": null }, "geometry": { "type": "Point", "coordinates": [ 2.40804, 48.84732 ] } },
{ "type": "Feature", "properties": { "name": "Marcel Sembat", "ville": "Paris", "mode": "Metro", "ligne": "Marcel Sembat", "Line": null }, "geometry": { "type": "Point", "coordinates": [ 2.24359, 48.83365 ] } },
{ "type": "Feature", "properties": { "name": "La Motte-Picquet - Grenelle", "ville": "Paris", "mode": "Metro", "ligne": "La Motte-Picquet - Grenelle", "Line": null }, "geometry": { "type": "Point", "coordinates": [ 2.29819, 48.84898 ] } },
{ "type": "Feature", "properties": { "name": "Cambronne", "ville": "Paris", "mode": "Metro", "ligne": "Cambronne", "Line": null }, "geometry": { "type": "Point", "coordinates": [ 2.30295, 48.84753 ] } },
{ "type": "Feature", "properties": { "name": "Dupleix", "ville": "Paris", "mode": "Metro", "ligne": "Dupleix", "Line": null }, "geometry": { "type": "Point", "coordinates": [ 2.29367, 48.85042 ] } },
{ "type": "Feature", "properties": { "name": "Orly Ouest", "ville": "Paris", "mode": "Metro", "ligne": "Orly Ouest", "Line": null }, "geometry": { "type": "Point", "coordinates": [ 2.36001, 48.72964 ] } },
{ "type": "Feature", "properties": { "name": "Mairie d'Issy", "ville": "Paris", "mode": "Metro", "ligne": "Mairie d'Issy", "Line": null }, "geometry": { "type": "Point", "coordinates": [ 2.27308, 48.82423 ] } },
{ "type": "Feature", "properties": { "name": "Porte de Versailles", "ville": "Paris", "mode": "Metro", "ligne": "Porte de Versailles", "Line": null }, "geometry": { "type": "Point", "coordinates": [ 2.2884, 48.83261 ] } },
{ "type": "Feature", "properties": { "name": "Convention", "ville": "Paris", "mode": "Metro", "ligne": "Convention", "Line": null }, "geometry": { "type": "Point", "coordinates": [ 2.29663, 48.83732 ] } },
{ "type": "Feature", "properties": { "name": "La Défense - Grande Arche", "ville": "Paris", "mode": "Metro", "ligne": "La Défense - Grande Arche", "Line": null }, "geometry": { "type": "Point", "coordinates": [ 2.23777, 48.89197 ] } },
{ "type": "Feature", "properties": { "name": "Porte d'Orléans", "ville": "Paris", "mode": "Metro", "ligne": "Porte d'Orléans", "Line": null }, "geometry": { "type": "Point", "coordinates": [ 2.32566, 48.82364 ] } },
{ "type": "Feature", "properties": { "name": "Alésia", "ville": "Paris", "mode": "Metro", "ligne": "Alésia", "Line": null }, "geometry": { "type": "Point", "coordinates": [ 2.32693, 48.82808 ] } },
{ "type": "Feature", "properties": { "name": "Mouton-Duvernet", "ville": "Paris", "mode": "Metro", "ligne": "Mouton-Duvernet", "Line": null }, "geometry": { "type": "Point", "coordinates": [ 2.32983, 48.8313 ] } },
{ "type": "Feature", "properties": { "name": "Denfert-Rochereau", "ville": "Paris", "mode": "Metro", "ligne": "Denfert-Rochereau", "Line": null }, "geometry": { "type": "Point", "coordinates": [ 2.33259, 48.83404 ] } },
{ "type": "Feature", "properties": { "name": "Raspail", "ville": "Paris", "mode": "Metro", "ligne": "Raspail", "Line": null }, "geometry": { "type": "Point", "coordinates": [ 2.33081, 48.83892 ] } },
{ "type": "Feature", "properties": { "name": "Saint-Jacques", "ville": "Paris", "mode": "Metro", "ligne": "Saint-Jacques", "Line": null }, "geometry": { "type": "Point", "coordinates": [ 2.33663, 48.83302 ] } },
{ "type": "Feature", "properties": { "name": "Glacière", "ville": "Paris", "mode": "Metro", "ligne": "Glacière", "Line": null }, "geometry": { "type": "Point", "coordinates": [ 2.34348, 48.83113 ] } },
{ "type": "Feature", "properties": { "name": "Corvisart", "ville": "Paris", "mode": "Metro", "ligne": "Corvisart", "Line": null }, "geometry": { "type": "Point", "coordinates": [ 2.35047, 48.82978 ] } },
{ "type": "Feature", "properties": { "name": "Place d'Italie", "ville": "Paris", "mode": "Metro", "ligne": "Place d'Italie", "Line": null }, "geometry": { "type": "Point", "coordinates": [ 2.35571, 48.8314 ] } },
{ "type": "Feature", "properties": { "name": "Nationale", "ville": "Paris", "mode": "Metro", "ligne": "Nationale", "Line": null }, "geometry": { "type": "Point", "coordinates": [ 2.36286, 48.8332 ] } },
{ "type": "Feature", "properties": { "name": "Chevaleret", "ville": "Paris", "mode": "Metro", "ligne": "Chevaleret", "Line": null }, "geometry": { "type": "Point", "coordinates": [ 2.36808, 48.83495 ] } },
{ "type": "Feature", "properties": { "name": "Quai de la Gare", "ville": "Paris", "mode": "Metro", "ligne": "Quai de la Gare", "Line": null }, "geometry": { "type": "Point", "coordinates": [ 2.37291, 48.83708 ] } },
{ "type": "Feature", "properties": { "name": "Stalingrad", "ville": "Paris", "mode": "Metro", "ligne": "Stalingrad", "Line": null }, "geometry": { "type": "Point", "coordinates": [ 2.36594, 48.88429 ] } },
{ "type": "Feature", "properties": { "name": "Nation", "ville": "Paris", "mode": "Metro", "ligne": "Nation", "Line": null }, "geometry": { "type": "Point", "coordinates": [ 2.39605, 48.84806 ] } },
{ "type": "Feature", "properties": { "name": "Château de Vincennes", "ville": "Paris", "mode": "Metro", "ligne": "Château de Vincennes", "Line": null }, "geometry": { "type": "Point", "coordinates": [ 2.43891, 48.84458 ] } },
{ "type": "Feature", "properties": { "name": "Bérault", "ville": "Paris", "mode": "Metro", "ligne": "Bérault", "Line": null }, "geometry": { "type": "Point", "coordinates": [ 2.42926, 48.84545 ] } },
{ "type": "Feature", "properties": { "name": "Buttes Chaumont", "ville": "Paris", "mode": "Metro", "ligne": "Buttes Chaumont", "Line": null }, "geometry": { "type": "Point", "coordinates": [ 2.38166, 48.87821 ] } },
{ "type": "Feature", "properties": { "name": "Bolivar", "ville": "Paris", "mode": "Metro", "ligne": "Bolivar", "Line": null }, "geometry": { "type": "Point", "coordinates": [ 2.37389, 48.8809 ] } },
{ "type": "Feature", "properties": { "name": "Buzenval", "ville": "Paris", "mode": "Metro", "ligne": "Buzenval", "Line": null }, "geometry": { "type": "Point", "coordinates": [ 2.40138, 48.85182 ] } },
{ "type": "Feature", "properties": { "name": "Saint-Mandé", "ville": "Paris", "mode": "Metro", "ligne": "Saint-Mandé", "Line": null }, "geometry": { "type": "Point", "coordinates": [ 2.41844, 48.8464 ] } },
{ "type": "Feature", "properties": { "name": "Avron", "ville": "Paris", "mode": "Metro", "ligne": "Avron", "Line": null }, "geometry": { "type": "Point", "coordinates": [ 2.39802, 48.85202 ] } },
{ "type": "Feature", "properties": { "name": "Ménilmontant", "ville": "Paris", "mode": "Metro", "ligne": "Ménilmontant", "Line": null }, "geometry": { "type": "Point", "coordinates": [ 2.38365, 48.86632 ] } },
{ "type": "Feature", "properties": { "name": "Père Lachaise", "ville": "Paris", "mode": "Metro", "ligne": "Père Lachaise", "Line": null }, "geometry": { "type": "Point", "coordinates": [ 2.38733, 48.86298 ] } },
{ "type": "Feature", "properties": { "name": "Philippe Auguste", "ville": "Paris", "mode": "Metro", "ligne": "Philippe Auguste", "Line": null }, "geometry": { "type": "Point", "coordinates": [ 2.39017, 48.85826 ] } },
{ "type": "Feature", "properties": { "name": "Alexandre Dumas", "ville": "Paris", "mode": "Metro", "ligne": "Alexandre Dumas", "Line": null }, "geometry": { "type": "Point", "coordinates": [ 2.39501, 48.85595 ] } },
{ "type": "Feature", "properties": { "name": "Belleville", "ville": "Paris", "mode": "Metro", "ligne": "Belleville", "Line": null }, "geometry": { "type": "Point", "coordinates": [ 2.37698, 48.87205 ] } },
{ "type": "Feature", "properties": { "name": "Couronnes", "ville": "Paris", "mode": "Metro", "ligne": "Couronnes", "Line": null }, "geometry": { "type": "Point", "coordinates": [ 2.37974, 48.86963 ] } },
{ "type": "Feature", "properties": { "name": "Colonel Fabien", "ville": "Paris", "mode": "Metro", "ligne": "Colonel Fabien", "Line": null }, "geometry": { "type": "Point", "coordinates": [ 2.37112, 48.87718 ] } },
{ "type": "Feature", "properties": { "name": "Blanche", "ville": "Paris", "mode": "Metro", "ligne": "Blanche", "Line": null }, "geometry": { "type": "Point", "coordinates": [ 2.33362, 48.88345 ] } },
{ "type": "Feature", "properties": { "name": "Place de Clichy", "ville": "Paris", "mode": "Metro", "ligne": "Place de Clichy", "Line": null }, "geometry": { "type": "Point", "coordinates": [ 2.32718, 48.88339 ] } },
{ "type": "Feature", "properties": { "name": "Rome", "ville": "Paris", "mode": "Metro", "ligne": "Rome", "Line": null }, "geometry": { "type": "Point", "coordinates": [ 2.32212, 48.88245 ] } },
{ "type": "Feature", "properties": { "name": "Villiers", "ville": "Paris", "mode": "Metro", "ligne": "Villiers", "Line": null }, "geometry": { "type": "Point", "coordinates": [ 2.3149, 48.88114 ] } },
{ "type": "Feature", "properties": { "name": "Monceau", "ville": "Paris", "mode": "Metro", "ligne": "Monceau", "Line": null }, "geometry": { "type": "Point", "coordinates": [ 2.30859, 48.88027 ] } },
{ "type": "Feature", "properties": { "name": "Charles de Gaulle — Étoile (metro)", "ville": "Paris", "mode": "Metro", "ligne": "Charles de Gaulle — Étoile (metro)", "Line": null }, "geometry": { "type": "Point", "coordinates": [ 2.29496, 48.87383 ] } },
{ "type": "Feature", "properties": { "name": "Victor Hugo", "ville": "Paris", "mode": "Metro", "ligne": "Victor Hugo", "Line": null }, "geometry": { "type": "Point", "coordinates": [ 2.28539, 48.86969 ] } },
{ "type": "Feature", "properties": { "name": "Porte Dauphine", "ville": "Paris", "mode": "Metro", "ligne": "Porte Dauphine", "Line": null }, "geometry": { "type": "Point", "coordinates": [ 2.27781, 48.87136 ] } },
{ "type": "Feature", "properties": { "name": "Gallieni", "ville": "Paris", "mode": "Metro", "ligne": "Gallieni", "Line": null }, "geometry": { "type": "Point", "coordinates": [ 2.41666, 48.86525 ] } },
{ "type": "Feature", "properties": { "name": "Porte de Bagnolet", "ville": "Paris", "mode": "Metro", "ligne": "Porte de Bagnolet", "Line": null }, "geometry": { "type": "Point", "coordinates": [ 2.40881, 48.86455 ] } },
{ "type": "Feature", "properties": { "name": "Rue Saint-Maur", "ville": "Paris", "mode": "Metro", "ligne": "Rue Saint-Maur", "Line": null }, "geometry": { "type": "Point", "coordinates": [ 2.37946, 48.8643 ] } },
{ "type": "Feature", "properties": { "name": "Parmentier", "ville": "Paris", "mode": "Metro", "ligne": "Parmentier", "Line": null }, "geometry": { "type": "Point", "coordinates": [ 2.37391, 48.86539 ] } },
{ "type": "Feature", "properties": { "name": "Temple", "ville": "Paris", "mode": "Metro", "ligne": "Temple", "Line": null }, "geometry": { "type": "Point", "coordinates": [ 2.36062, 48.86651 ] } },
{ "type": "Feature", "properties": { "name": "Arts et Métiers", "ville": "Paris", "mode": "Metro", "ligne": "Arts et Métiers", "Line": null }, "geometry": { "type": "Point", "coordinates": [ 2.35608, 48.86541 ] } },
{ "type": "Feature", "properties": { "name": "Réaumur - Sébastopol", "ville": "Paris", "mode": "Metro", "ligne": "Réaumur - Sébastopol", "Line": null }, "geometry": { "type": "Point", "coordinates": [ 2.35246, 48.86626 ] } },
{ "type": "Feature", "properties": { "name": "Bourse", "ville": "Paris", "mode": "Metro", "ligne": "Bourse", "Line": null }, "geometry": { "type": "Point", "coordinates": [ 2.34147, 48.86863 ] } },
{ "type": "Feature", "properties": { "name": "Quatre Septembre", "ville": "Paris", "mode": "Metro", "ligne": "Quatre Septembre", "Line": null }, "geometry": { "type": "Point", "coordinates": [ 2.33671, 48.86957 ] } },
{ "type": "Feature", "properties": { "name": "Opéra", "ville": "Paris", "mode": "Metro", "ligne": "Opéra", "Line": null }, "geometry": { "type": "Point", "coordinates": [ 2.33242, 48.87074 ] } },
{ "type": "Feature", "properties": { "name": "Havre - Caumartin", "ville": "Paris", "mode": "Metro", "ligne": "Havre - Caumartin", "Line": null }, "geometry": { "type": "Point", "coordinates": [ 2.32732, 48.87368 ] } },
{ "type": "Feature", "properties": { "name": "Malesherbes", "ville": "Paris", "mode": "Metro", "ligne": "Malesherbes", "Line": null }, "geometry": { "type": "Point", "coordinates": [ 2.30923, 48.88286 ] } },
{ "type": "Feature", "properties": { "name": "Wagram", "ville": "Paris", "mode": "Metro", "ligne": "Wagram", "Line": null }, "geometry": { "type": "Point", "coordinates": [ 2.30374, 48.88405 ] } },
{ "type": "Feature", "properties": { "name": "Péreire", "ville": "Paris", "mode": "Metro", "ligne": "Péreire", "Line": null }, "geometry": { "type": "Point", "coordinates": [ 2.29897, 48.88467 ] } },
{ "type": "Feature", "properties": { "name": "Porte de Champerret", "ville": "Paris", "mode": "Metro", "ligne": "Porte de Champerret", "Line": null }, "geometry": { "type": "Point", "coordinates": [ 2.29349, 48.88593 ] } },
{ "type": "Feature", "properties": { "name": "Vaugirard", "ville": "Paris", "mode": "Metro", "ligne": "Vaugirard", "Line": null }, "geometry": { "type": "Point", "coordinates": [ 2.30129, 48.83958 ] } },
{ "type": "Feature", "properties": { "name": "Volontaires", "ville": "Paris", "mode": "Metro", "ligne": "Volontaires", "Line": null }, "geometry": { "type": "Point", "coordinates": [ 2.30801, 48.84151 ] } },
{ "type": "Feature", "properties": { "name": "Falguière", "ville": "Paris", "mode": "Metro", "ligne": "Falguière", "Line": null }, "geometry": { "type": "Point", "coordinates": [ 2.31756, 48.8444 ] } },
{ "type": "Feature", "properties": { "name": "Duroc", "ville": "Paris", "mode": "Metro", "ligne": "Duroc", "Line": null }, "geometry": { "type": "Point", "coordinates": [ 2.31665, 48.84685 ] } },
{ "type": "Feature", "properties": { "name": "Saint-François-Xavier", "ville": "Paris", "mode": "Metro", "ligne": "Saint-François-Xavier", "Line": null }, "geometry": { "type": "Point", "coordinates": [ 2.31439, 48.8514 ] } },
{ "type": "Feature", "properties": { "name": "Varenne", "ville": "Paris", "mode": "Metro", "ligne": "Varenne", "Line": null }, "geometry": { "type": "Point", "coordinates": [ 2.31516, 48.85681 ] } },
{ "type": "Feature", "properties": { "name": "Bel-Air", "ville": "Paris", "mode": "Metro", "ligne": "Bel-Air", "Line": null }, "geometry": { "type": "Point", "coordinates": [ 2.4009, 48.84133 ] } },
{ "type": "Feature", "properties": { "name": "Marx Dormoy", "ville": "Paris", "mode": "Metro", "ligne": "Marx Dormoy", "Line": null }, "geometry": { "type": "Point", "coordinates": [ 2.35988, 48.8905 ] } },
{ "type": "Feature", "properties": { "name": "Gabriel Péri", "ville": "Paris", "mode": "Metro", "ligne": "Gabriel Péri", "Line": null }, "geometry": { "type": "Point", "coordinates": [ 2.29487, 48.91622 ] } },
{ "type": "Feature", "properties": { "name": "Jacques Bonsergent", "ville": "Paris", "mode": "Metro", "ligne": "Jacques Bonsergent", "Line": null }, "geometry": { "type": "Point", "coordinates": [ 2.36066, 48.87108 ] } },
{ "type": "Feature", "properties": { "name": "Anatole France", "ville": "Paris", "mode": "Metro", "ligne": "Anatole France", "Line": null }, "geometry": { "type": "Point", "coordinates": [ 2.28522, 48.89211 ] } },
{ "type": "Feature", "properties": { "name": "Croix de Chavaux", "ville": "Paris", "mode": "Metro", "ligne": "Croix de Chavaux", "Line": null }, "geometry": { "type": "Point", "coordinates": [ 2.43576, 48.85795 ] } },
{ "type": "Feature", "properties": { "name": "Mairie de Montreuil", "ville": "Paris", "mode": "Metro", "ligne": "Mairie de Montreuil", "Line": null }, "geometry": { "type": "Point", "coordinates": [ 2.44157, 48.8626 ] } },
{ "type": "Feature", "properties": { "name": "Pont de Levallois – Bécon", "ville": "Paris", "mode": "Metro", "ligne": "Pont de Levallois – Bécon", "Line": null }, "geometry": { "type": "Point", "coordinates": [ 2.2804, 48.89714 ] } },
{ "type": "Feature", "properties": { "name": "Louise Michel", "ville": "Paris", "mode": "Metro", "ligne": "Louise Michel", "Line": null }, "geometry": { "type": "Point", "coordinates": [ 2.28847, 48.88828 ] } },
{ "type": "Feature", "properties": { "name": "Maraîchers", "ville": "Paris", "mode": "Metro", "ligne": "Maraîchers", "Line": null }, "geometry": { "type": "Point", "coordinates": [ 2.40611, 48.8527 ] } },
{ "type": "Feature", "properties": { "name": "Porte de Montreuil", "ville": "Paris", "mode": "Metro", "ligne": "Porte de Montreuil", "Line": null }, "geometry": { "type": "Point", "coordinates": [ 2.41052, 48.85348 ] } },
{ "type": "Feature", "properties": { "name": "Robespierre", "ville": "Paris", "mode": "Metro", "ligne": "Robespierre", "Line": null }, "geometry": { "type": "Point", "coordinates": [ 2.42371, 48.85581 ] } },
{ "type": "Feature", "properties": { "name": "Rue des Boulets", "ville": "Paris", "mode": "Metro", "ligne": "Rue des Boulets", "Line": null }, "geometry": { "type": "Point", "coordinates": [ 2.38879, 48.85258 ] } },
{ "type": "Feature", "properties": { "name": "Charonne", "ville": "Paris", "mode": "Metro", "ligne": "Charonne", "Line": null }, "geometry": { "type": "Point", "coordinates": [ 2.38536, 48.85474 ] } },
{ "type": "Feature", "properties": { "name": "Voltaire", "ville": "Paris", "mode": "Metro", "ligne": "Voltaire", "Line": null }, "geometry": { "type": "Point", "coordinates": [ 2.3798, 48.85816 ] } },
{ "type": "Feature", "properties": { "name": "Saint-Ambroise", "ville": "Paris", "mode": "Metro", "ligne": "Saint-Ambroise", "Line": null }, "geometry": { "type": "Point", "coordinates": [ 2.3748, 48.86105 ] } },
{ "type": "Feature", "properties": { "name": "Oberkampf", "ville": "Paris", "mode": "Metro", "ligne": "Oberkampf", "Line": null }, "geometry": { "type": "Point", "coordinates": [ 2.36957, 48.86413 ] } },
{ "type": "Feature", "properties": { "name": "Strasbourg - Saint-Denis", "ville": "Paris", "mode": "Metro", "ligne": "Strasbourg - Saint-Denis", "Line": null }, "geometry": { "type": "Point", "coordinates": [ 2.35447, 48.86943 ] } },
{ "type": "Feature", "properties": { "name": "Bonne Nouvelle", "ville": "Paris", "mode": "Metro", "ligne": "Bonne Nouvelle", "Line": null }, "geometry": { "type": "Point", "coordinates": [ 2.34878, 48.8706 ] } },
{ "type": "Feature", "properties": { "name": "Grands Boulevards", "ville": "Paris", "mode": "Metro", "ligne": "Grands Boulevards", "Line": null }, "geometry": { "type": "Point", "coordinates": [ 2.34329, 48.87152 ] } },
{ "type": "Feature", "properties": { "name": "Richelieu Drouot", "ville": "Paris", "mode": "Metro", "ligne": "Richelieu Drouot", "Line": null }, "geometry": { "type": "Point", "coordinates": [ 2.33976, 48.87201 ] } },
{ "type": "Feature", "properties": { "name": "Chaussée d'Antin - La Fayette", "ville": "Paris", "mode": "Metro", "ligne": "Chaussée d'Antin - La Fayette", "Line": null }, "geometry": { "type": "Point", "coordinates": [ 2.33347, 48.87304 ] } },
{ "type": "Feature", "properties": { "name": "Saint-Augustin", "ville": "Paris", "mode": "Metro", "ligne": "Saint-Augustin", "Line": null }, "geometry": { "type": "Point", "coordinates": [ 2.31993, 48.8747 ] } },
{ "type": "Feature", "properties": { "name": "Cardinal Lemoine", "ville": "Paris", "mode": "Metro", "ligne": "Cardinal Lemoine", "Line": null }, "geometry": { "type": "Point", "coordinates": [ 2.35173, 48.84651 ] } },
{ "type": "Feature", "properties": { "name": "Maubert Mutualité", "ville": "Paris", "mode": "Metro", "ligne": "Maubert Mutualité", "Line": null }, "geometry": { "type": "Point", "coordinates": [ 2.34875, 48.84991 ] } },
{ "type": "Feature", "properties": { "name": "Cluny - La Sorbonne", "ville": "Paris", "mode": "Metro", "ligne": "Cluny - La Sorbonne", "Line": null }, "geometry": { "type": "Point", "coordinates": [ 2.34485, 48.85103 ] } },
{ "type": "Feature", "properties": { "name": "Odéon", "ville": "Paris", "mode": "Metro", "ligne": "Odéon", "Line": null }, "geometry": { "type": "Point", "coordinates": [ 2.33937, 48.85229 ] } },
{ "type": "Feature", "properties": { "name": "Mabillon", "ville": "Paris", "mode": "Metro", "ligne": "Mabillon", "Line": null }, "geometry": { "type": "Point", "coordinates": [ 2.33501, 48.85283 ] } },
{ "type": "Feature", "properties": { "name": "Balard", "ville": "Paris", "mode": "Metro", "ligne": "Balard", "Line": null }, "geometry": { "type": "Point", "coordinates": [ 2.2784, 48.83639 ] } },
{ "type": "Feature", "properties": { "name": "Lourmel", "ville": "Paris", "mode": "Metro", "ligne": "Lourmel", "Line": null }, "geometry": { "type": "Point", "coordinates": [ 2.28214, 48.83875 ] } },
{ "type": "Feature", "properties": { "name": "Boucicaut", "ville": "Paris", "mode": "Metro", "ligne": "Boucicaut", "Line": null }, "geometry": { "type": "Point", "coordinates": [ 2.28792, 48.84108 ] } },
{ "type": "Feature", "properties": { "name": "Félix Faure", "ville": "Paris", "mode": "Metro", "ligne": "Félix Faure", "Line": null }, "geometry": { "type": "Point", "coordinates": [ 2.29178, 48.84269 ] } },
{ "type": "Feature", "properties": { "name": "Basilique de Saint-Denis", "ville": "Paris", "mode": "Metro", "ligne": "Basilique de Saint-Denis", "Line": null }, "geometry": { "type": "Point", "coordinates": [ 2.3591, 48.93683 ] } },
{ "type": "Feature", "properties": { "name": "Dugommier", "ville": "Paris", "mode": "Metro", "ligne": "Dugommier", "Line": null }, "geometry": { "type": "Point", "coordinates": [ 2.38968, 48.83899 ] } },
{ "type": "Feature", "properties": { "name": "Daumesnil", "ville": "Paris", "mode": "Metro", "ligne": "Daumesnil", "Line": null }, "geometry": { "type": "Point", "coordinates": [ 2.39589, 48.83953 ] } },
{ "type": "Feature", "properties": { "name": "Bercy", "ville": "Paris", "mode": "Metro", "ligne": "Bercy", "Line": null }, "geometry": { "type": "Point", "coordinates": [ 2.37995, 48.84015 ] } },
{ "type": "Feature", "properties": { "name": "Edgar Quinet", "ville": "Paris", "mode": "Metro", "ligne": "Edgar Quinet", "Line": null }, "geometry": { "type": "Point", "coordinates": [ 2.32499, 48.84107 ] } },
{ "type": "Feature", "properties": { "name": "Pasteur", "ville": "Paris", "mode": "Metro", "ligne": "Pasteur", "Line": null }, "geometry": { "type": "Point", "coordinates": [ 2.3126, 48.84295 ] } },
{ "type": "Feature", "properties": { "name": "Kléber", "ville": "Paris", "mode": "Metro", "ligne": "Kléber", "Line": null }, "geometry": { "type": "Point", "coordinates": [ 2.29351, 48.87168 ] } },
{ "type": "Feature", "properties": { "name": "Boissière", "ville": "Paris", "mode": "Metro", "ligne": "Boissière", "Line": null }, "geometry": { "type": "Point", "coordinates": [ 2.29027, 48.86691 ] } },
{ "type": "Feature", "properties": { "name": "Passy", "ville": "Paris", "mode": "Metro", "ligne": "Passy", "Line": null }, "geometry": { "type": "Point", "coordinates": [ 2.28578, 48.8575 ] } },
{ "type": "Feature", "properties": { "name": "Iéna", "ville": "Paris", "mode": "Metro", "ligne": "Iéna", "Line": null }, "geometry": { "type": "Point", "coordinates": [ 2.29378, 48.86467 ] } },
{ "type": "Feature", "properties": { "name": "Rue de la Pompe", "ville": "Paris", "mode": "Metro", "ligne": "Rue de la Pompe", "Line": null }, "geometry": { "type": "Point", "coordinates": [ 2.27809, 48.86401 ] } },
{ "type": "Feature", "properties": { "name": "La Muette", "ville": "Paris", "mode": "Metro", "ligne": "La Muette", "Line": null }, "geometry": { "type": "Point", "coordinates": [ 2.2742, 48.85808 ] } },
{ "type": "Feature", "properties": { "name": "Ranelagh", "ville": "Paris", "mode": "Metro", "ligne": "Ranelagh", "Line": null }, "geometry": { "type": "Point", "coordinates": [ 2.27022, 48.85558 ] } },
{ "type": "Feature", "properties": { "name": "Jasmin", "ville": "Paris", "mode": "Metro", "ligne": "Jasmin", "Line": null }, "geometry": { "type": "Point", "coordinates": [ 2.26818, 48.85256 ] } },
{ "type": "Feature", "properties": { "name": "Michel-Ange - Auteuil", "ville": "Paris", "mode": "Metro", "ligne": "Michel-Ange - Auteuil", "Line": null }, "geometry": { "type": "Point", "coordinates": [ 2.26419, 48.848 ] } },
{ "type": "Feature", "properties": { "name": "Michel-Ange - Molitor", "ville": "Paris", "mode": "Metro", "ligne": "Michel-Ange - Molitor", "Line": null }, "geometry": { "type": "Point", "coordinates": [ 2.26188, 48.84525 ] } },
{ "type": "Feature", "properties": { "name": "Exelmans", "ville": "Paris", "mode": "Metro", "ligne": "Exelmans", "Line": null }, "geometry": { "type": "Point", "coordinates": [ 2.26005, 48.843 ] } },
{ "type": "Feature", "properties": { "name": "Porte de Saint-Cloud", "ville": "Paris", "mode": "Metro", "ligne": "Porte de Saint-Cloud", "Line": null }, "geometry": { "type": "Point", "coordinates": [ 2.25657, 48.83777 ] } },
{ "type": "Feature", "properties": { "name": "Alma-Marceau", "ville": "Paris", "mode": "Metro", "ligne": "Alma-Marceau", "Line": null }, "geometry": { "type": "Point", "coordinates": [ 2.30063, 48.86497 ] } },
{ "type": "Feature", "properties": { "name": "Saint-Philippe du Roule", "ville": "Paris", "mode": "Metro", "ligne": "Saint-Philippe du Roule", "Line": null }, "geometry": { "type": "Point", "coordinates": [ 2.31008, 48.87234 ] } },
{ "type": "Feature", "properties": { "name": "Miromesnil", "ville": "Paris", "mode": "Metro", "ligne": "Miromesnil", "Line": null }, "geometry": { "type": "Point", "coordinates": [ 2.31455, 48.87368 ] } },
{ "type": "Feature", "properties": { "name": "Sèvres-Babylone", "ville": "Paris", "mode": "Metro", "ligne": "Sèvres-Babylone", "Line": null }, "geometry": { "type": "Point", "coordinates": [ 2.32672, 48.85146 ] } },
{ "type": "Feature", "properties": { "name": "Mairie de Clichy", "ville": "Paris", "mode": "Metro", "ligne": "Mairie de Clichy", "Line": null }, "geometry": { "type": "Point", "coordinates": [ 2.30537, 48.9039 ] } },
{ "type": "Feature", "properties": { "name": "Porte de Clichy", "ville": "Paris", "mode": "Metro", "ligne": "Porte de Clichy", "Line": null }, "geometry": { "type": "Point", "coordinates": [ 2.31451, 48.89396 ] } },
{ "type": "Feature", "properties": { "name": "Brochant", "ville": "Paris", "mode": "Metro", "ligne": "Brochant", "Line": null }, "geometry": { "type": "Point", "coordinates": [ 2.32012, 48.89052 ] } },
{ "type": "Feature", "properties": { "name": "La Fourche", "ville": "Paris", "mode": "Metro", "ligne": "La Fourche", "Line": null }, "geometry": { "type": "Point", "coordinates": [ 2.3257, 48.88741 ] } },
{ "type": "Feature", "properties": { "name": "Ségur", "ville": "Paris", "mode": "Metro", "ligne": "Ségur", "Line": null }, "geometry": { "type": "Point", "coordinates": [ 2.30764, 48.84708 ] } },
{ "type": "Feature", "properties": { "name": "Avenue Émile Zola", "ville": "Paris", "mode": "Metro", "ligne": "Avenue Émile Zola", "Line": null }, "geometry": { "type": "Point", "coordinates": [ 2.29531, 48.84705 ] } },
{ "type": "Feature", "properties": { "name": "Assemblée Nationale", "ville": "Paris", "mode": "Metro", "ligne": "Assemblée Nationale", "Line": null }, "geometry": { "type": "Point", "coordinates": [ 2.32106, 48.8607 ] } },
{ "type": "Feature", "properties": { "name": "Solférino", "ville": "Paris", "mode": "Metro", "ligne": "Solférino", "Line": null }, "geometry": { "type": "Point", "coordinates": [ 2.32312, 48.85868 ] } },
{ "type": "Feature", "properties": { "name": "Rennes", "ville": "Paris", "mode": "Metro", "ligne": "Rennes", "Line": null }, "geometry": { "type": "Point", "coordinates": [ 2.3278, 48.8481 ] } },
{ "type": "Feature", "properties": { "name": "Notre-Dame des Champs", "ville": "Paris", "mode": "Metro", "ligne": "Notre-Dame des Champs", "Line": null }, "geometry": { "type": "Point", "coordinates": [ 2.32866, 48.84528 ] } },
{ "type": "Feature", "properties": { "name": "Madeleine", "ville": "Paris", "mode": "Metro", "ligne": "Madeleine", "Line": null }, "geometry": { "type": "Point", "coordinates": [ 2.32539, 48.86939 ] } },
{ "type": "Feature", "properties": { "name": "Commerce", "ville": "Paris", "mode": "Metro", "ligne": "Commerce", "Line": null }, "geometry": { "type": "Point", "coordinates": [ 2.29377, 48.8447 ] } },
{ "type": "Feature", "properties": { "name": "École Militaire", "ville": "Paris", "mode": "Metro", "ligne": "École Militaire", "Line": null }, "geometry": { "type": "Point", "coordinates": [ 2.3061, 48.85464 ] } },
{ "type": "Feature", "properties": { "name": "La Tour Maubourg", "ville": "Paris", "mode": "Metro", "ligne": "La Tour Maubourg", "Line": null }, "geometry": { "type": "Point", "coordinates": [ 2.31029, 48.85758 ] } },
{ "type": "Feature", "properties": { "name": "Invalides", "ville": "Paris", "mode": "Metro", "ligne": "Invalides", "Line": null }, "geometry": { "type": "Point", "coordinates": [ 2.31479, 48.86117 ] } },
{ "type": "Feature", "properties": { "name": "Filles du Calvaire", "ville": "Paris", "mode": "Metro", "ligne": "Filles du Calvaire", "Line": null }, "geometry": { "type": "Point", "coordinates": [ 2.36661, 48.86332 ] } },
{ "type": "Feature", "properties": { "name": "Saint-Sébastien - Froissart", "ville": "Paris", "mode": "Metro", "ligne": "Saint-Sébastien - Froissart", "Line": null }, "geometry": { "type": "Point", "coordinates": [ 2.36723, 48.8611 ] } },
{ "type": "Feature", "properties": { "name": "Chemin Vert", "ville": "Paris", "mode": "Metro", "ligne": "Chemin Vert", "Line": null }, "geometry": { "type": "Point", "coordinates": [ 2.368, 48.85754 ] } },
{ "type": "Feature", "properties": { "name": "Ledru-Rollin", "ville": "Paris", "mode": "Metro", "ligne": "Ledru-Rollin", "Line": null }, "geometry": { "type": "Point", "coordinates": [ 2.37599, 48.85119 ] } },
{ "type": "Feature", "properties": { "name": "Faidherbe — Chaligny", "ville": "Paris", "mode": "Metro", "ligne": "Faidherbe — Chaligny", "Line": null }, "geometry": { "type": "Point", "coordinates": [ 2.38427, 48.85003 ] } },
{ "type": "Feature", "properties": { "name": "Montgallet", "ville": "Paris", "mode": "Metro", "ligne": "Montgallet", "Line": null }, "geometry": { "type": "Point", "coordinates": [ 2.39012, 48.84427 ] } },
{ "type": "Feature", "properties": { "name": "Michel Bizot", "ville": "Paris", "mode": "Metro", "ligne": "Michel Bizot", "Line": null }, "geometry": { "type": "Point", "coordinates": [ 2.40248, 48.83711 ] } },
{ "type": "Feature", "properties": { "name": "Liberté", "ville": "Paris", "mode": "Metro", "ligne": "Liberté", "Line": null }, "geometry": { "type": "Point", "coordinates": [ 2.40573, 48.82665 ] } },
{ "type": "Feature", "properties": { "name": "Porte Dorée", "ville": "Paris", "mode": "Metro", "ligne": "Porte Dorée", "Line": null }, "geometry": { "type": "Point", "coordinates": [ 2.40635, 48.83546 ] } },
{ "type": "Feature", "properties": { "name": "Picpus", "ville": "Paris", "mode": "Metro", "ligne": "Picpus", "Line": null }, "geometry": { "type": "Point", "coordinates": [ 2.40108, 48.84506 ] } },
{ "type": "Feature", "properties": { "name": "Olympiades", "ville": "Paris", "mode": "Metro", "ligne": "Olympiades", "Line": null }, "geometry": { "type": "Point", "coordinates": [ 2.3662, 48.82691 ] } },
{ "type": "Feature", "properties": { "name": "Porte de Charenton", "ville": "Paris", "mode": "Metro", "ligne": "Porte de Charenton", "Line": null }, "geometry": { "type": "Point", "coordinates": [ 2.39898, 48.83226 ] } },
{ "type": "Feature", "properties": { "name": "Pyramides", "ville": "Paris", "mode": "Metro", "ligne": "Pyramides", "Line": null }, "geometry": { "type": "Point", "coordinates": [ 2.33439, 48.86587 ] } },
{ "type": "Feature", "properties": { "name": "Trinité d'Estienne d'Orves", "ville": "Paris", "mode": "Metro", "ligne": "Trinité d'Estienne d'Orves", "Line": null }, "geometry": { "type": "Point", "coordinates": [ 2.33263, 48.87637 ] } },
{ "type": "Feature", "properties": { "name": "Notre-Dame de Lorette", "ville": "Paris", "mode": "Metro", "ligne": "Notre-Dame de Lorette", "Line": null }, "geometry": { "type": "Point", "coordinates": [ 2.33855, 48.87607 ] } },
{ "type": "Feature", "properties": { "name": "Rue du Bac", "ville": "Paris", "mode": "Metro", "ligne": "Rue du Bac", "Line": null }, "geometry": { "type": "Point", "coordinates": [ 2.32567, 48.85572 ] } },
{ "type": "Feature", "properties": { "name": "Saint-Georges", "ville": "Paris", "mode": "Metro", "ligne": "Saint-Georges", "Line": null }, "geometry": { "type": "Point", "coordinates": [ 2.33746, 48.87845 ] } },
{ "type": "Feature", "properties": { "name": "Abbesses", "ville": "Paris", "mode": "Metro", "ligne": "Abbesses", "Line": null }, "geometry": { "type": "Point", "coordinates": [ 2.33844, 48.88448 ] } },
{ "type": "Feature", "properties": { "name": "Lamarck - Caulaincourt", "ville": "Paris", "mode": "Metro", "ligne": "Lamarck - Caulaincourt", "Line": null }, "geometry": { "type": "Point", "coordinates": [ 2.33863, 48.88982 ] } },
{ "type": "Feature", "properties": { "name": "Jules Joffrin", "ville": "Paris", "mode": "Metro", "ligne": "Jules Joffrin", "Line": null }, "geometry": { "type": "Point", "coordinates": [ 2.34464, 48.89246 ] } },
{ "type": "Feature", "properties": { "name": "Porte de la Chapelle", "ville": "Paris", "mode": "Metro", "ligne": "Porte de la Chapelle", "Line": null }, "geometry": { "type": "Point", "coordinates": [ 2.3593, 48.89771 ] } },
{ "type": "Feature", "properties": { "name": "Simplon", "ville": "Paris", "mode": "Metro", "ligne": "Simplon", "Line": null }, "geometry": { "type": "Point", "coordinates": [ 2.34774, 48.89381 ] } },
{ "type": "Feature", "properties": { "name": "Gare du Nord (métro)", "ville": "Paris", "mode": "Metro", "ligne": "Gare du Nord (métro)", "Line": null }, "geometry": { "type": "Point", "coordinates": [ 2.35715, 48.87957 ] } },
{ "type": "Feature", "properties": { "name": "Gare de l'Est", "ville": "Paris", "mode": "Metro", "ligne": "Gare de l'Est", "Line": null }, "geometry": { "type": "Point", "coordinates": [ 2.35791, 48.8762 ] } },
{ "type": "Feature", "properties": { "name": "Étienne Marcel", "ville": "Paris", "mode": "Metro", "ligne": "Étienne Marcel", "Line": null }, "geometry": { "type": "Point", "coordinates": [ 2.34988, 48.86399 ] } },
{ "type": "Feature", "properties": { "name": "Château d'Eau", "ville": "Paris", "mode": "Metro", "ligne": "Château d'Eau", "Line": null }, "geometry": { "type": "Point", "coordinates": [ 2.35626, 48.8729 ] } },
{ "type": "Feature", "properties": { "name": "Les Halles", "ville": "Paris", "mode": "Metro", "ligne": "Les Halles", "Line": null }, "geometry": { "type": "Point", "coordinates": [ 2.34569, 48.86256 ] } },
{ "type": "Feature", "properties": { "name": "Cité", "ville": "Paris", "mode": "Metro", "ligne": "Cité", "Line": null }, "geometry": { "type": "Point", "coordinates": [ 2.34755, 48.8553 ] } },
{ "type": "Feature", "properties": { "name": "Saint-Michel", "ville": "Paris", "mode": "Metro", "ligne": "Saint-Michel", "Line": null }, "geometry": { "type": "Point", "coordinates": [ 2.34349, 48.85333 ] } },
{ "type": "Feature", "properties": { "name": "Saint-Germain-des-Prés", "ville": "Paris", "mode": "Metro", "ligne": "Saint-Germain-des-Prés", "Line": null }, "geometry": { "type": "Point", "coordinates": [ 2.33467, 48.85333 ] } },
{ "type": "Feature", "properties": { "name": "Saint-Placide", "ville": "Paris", "mode": "Metro", "ligne": "Saint-Placide", "Line": null }, "geometry": { "type": "Point", "coordinates": [ 2.32708, 48.84709 ] } },
{ "type": "Feature", "properties": { "name": "Vavin", "ville": "Paris", "mode": "Metro", "ligne": "Vavin", "Line": null }, "geometry": { "type": "Point", "coordinates": [ 2.329, 48.8422 ] } },
{ "type": "Feature", "properties": { "name": "Charles Michels", "ville": "Paris", "mode": "Metro", "ligne": "Charles Michels", "Line": null }, "geometry": { "type": "Point", "coordinates": [ 2.28589, 48.84648 ] } },
{ "type": "Feature", "properties": { "name": "Javel - André Citroën", "ville": "Paris", "mode": "Metro", "ligne": "Javel - André Citroën", "Line": null }, "geometry": { "type": "Point", "coordinates": [ 2.2783, 48.84616 ] } },
{ "type": "Feature", "properties": { "name": "Église d'Auteuil", "ville": "Paris", "mode": "Metro", "ligne": "Église d'Auteuil", "Line": null }, "geometry": { "type": "Point", "coordinates": [ 2.26867, 48.84732 ] } },
{ "type": "Feature", "properties": { "name": "Porte d'Auteuil", "ville": "Paris", "mode": "Metro", "ligne": "Porte d'Auteuil", "Line": null }, "geometry": { "type": "Point", "coordinates": [ 2.25839, 48.84777 ] } },
{ "type": "Feature", "properties": { "name": "Chardon Lagache", "ville": "Paris", "mode": "Metro", "ligne": "Chardon Lagache", "Line": null }, "geometry": { "type": "Point", "coordinates": [ 2.26726, 48.84527 ] } },
{ "type": "Feature", "properties": { "name": "Mirabeau", "ville": "Paris", "mode": "Metro", "ligne": "Mirabeau", "Line": null }, "geometry": { "type": "Point", "coordinates": [ 2.27172, 48.8468 ] } },
{ "type": "Feature", "properties": { "name": "Boulogne - Jean Jaurès", "ville": "Paris", "mode": "Metro", "ligne": "Boulogne - Jean Jaurès", "Line": null }, "geometry": { "type": "Point", "coordinates": [ 2.23873, 48.842 ] } },
{ "type": "Feature", "properties": { "name": "Boulogne - Pont de Saint-Cloud", "ville": "Paris", "mode": "Metro", "ligne": "Boulogne - Pont de Saint-Cloud", "Line": null }, "geometry": { "type": "Point", "coordinates": [ 2.22872, 48.84067 ] } },
{ "type": "Feature", "properties": { "name": "Goncourt", "ville": "Paris", "mode": "Metro", "ligne": "Goncourt", "Line": null }, "geometry": { "type": "Point", "coordinates": [ 2.37106, 48.87002 ] } },
{ "type": "Feature", "properties": { "name": "Rambuteau", "ville": "Paris", "mode": "Metro", "ligne": "Rambuteau", "Line": null }, "geometry": { "type": "Point", "coordinates": [ 2.35378, 48.86178 ] } },
{ "type": "Feature", "properties": { "name": "Porte des Lilas", "ville": "Paris", "mode": "Metro", "ligne": "Porte des Lilas", "Line": null }, "geometry": { "type": "Point", "coordinates": [ 2.40668, 48.87713 ] } },
{ "type": "Feature", "properties": { "name": "Télégraphe", "ville": "Paris", "mode": "Metro", "ligne": "Télégraphe", "Line": null }, "geometry": { "type": "Point", "coordinates": [ 2.39904, 48.87547 ] } },
{ "type": "Feature", "properties": { "name": "Pyrénées", "ville": "Paris", "mode": "Metro", "ligne": "Pyrénées", "Line": null }, "geometry": { "type": "Point", "coordinates": [ 2.38525, 48.87385 ] } },
{ "type": "Feature", "properties": { "name": "Jourdain", "ville": "Paris", "mode": "Metro", "ligne": "Jourdain", "Line": null }, "geometry": { "type": "Point", "coordinates": [ 2.38933, 48.8751 ] } },
{ "type": "Feature", "properties": { "name": "Gaîté", "ville": "Paris", "mode": "Metro", "ligne": "Gaîté", "Line": null }, "geometry": { "type": "Point", "coordinates": [ 2.32221, 48.83859 ] } },
{ "type": "Feature", "properties": { "name": "Plaisance", "ville": "Paris", "mode": "Metro", "ligne": "Plaisance", "Line": null }, "geometry": { "type": "Point", "coordinates": [ 2.31403, 48.83178 ] } },
{ "type": "Feature", "properties": { "name": "Pernety", "ville": "Paris", "mode": "Metro", "ligne": "Pernety", "Line": null }, "geometry": { "type": "Point", "coordinates": [ 2.31808, 48.83396 ] } },
{ "type": "Feature", "properties": { "name": "Malakoff - Plateau de Vanves", "ville": "Paris", "mode": "Metro", "ligne": "Malakoff - Plateau de Vanves", "Line": null }, "geometry": { "type": "Point", "coordinates": [ 2.29848, 48.8225 ] } },
{ "type": "Feature", "properties": { "name": "Bréguet-Sabin", "ville": "Paris", "mode": "Metro", "ligne": "Bréguet-Sabin", "Line": null }, "geometry": { "type": "Point", "coordinates": [ 2.37053, 48.85662 ] } },
{ "type": "Feature", "properties": { "name": "Richard Lenoir", "ville": "Paris", "mode": "Metro", "ligne": "Richard Lenoir", "Line": null }, "geometry": { "type": "Point", "coordinates": [ 2.37213, 48.8602 ] } },
{ "type": "Feature", "properties": { "name": "Laumière", "ville": "Paris", "mode": "Metro", "ligne": "Laumière", "Line": null }, "geometry": { "type": "Point", "coordinates": [ 2.37957, 48.88502 ] } },
{ "type": "Feature", "properties": { "name": "Ourcq", "ville": "Paris", "mode": "Metro", "ligne": "Ourcq", "Line": null }, "geometry": { "type": "Point", "coordinates": [ 2.38671, 48.88696 ] } },
{ "type": "Feature", "properties": { "name": "Porte de Pantin", "ville": "Paris", "mode": "Metro", "ligne": "Porte de Pantin", "Line": null }, "geometry": { "type": "Point", "coordinates": [ 2.3927, 48.88854 ] } },
{ "type": "Feature", "properties": { "name": "Hoche", "ville": "Paris", "mode": "Metro", "ligne": "Hoche", "Line": null }, "geometry": { "type": "Point", "coordinates": [ 2.40256, 48.8912 ] } },
{ "type": "Feature", "properties": { "name": "Louis Blanc", "ville": "Paris", "mode": "Metro", "ligne": "Louis Blanc", "Line": null }, "geometry": { "type": "Point", "coordinates": [ 2.36563, 48.88139 ] } },
{ "type": "Feature", "properties": { "name": "Poissonnière", "ville": "Paris", "mode": "Metro", "ligne": "Poissonnière", "Line": null }, "geometry": { "type": "Point", "coordinates": [ 2.34934, 48.87724 ] } },
{ "type": "Feature", "properties": { "name": "Riquet", "ville": "Paris", "mode": "Metro", "ligne": "Riquet", "Line": null }, "geometry": { "type": "Point", "coordinates": [ 2.37422, 48.88848 ] } },
{ "type": "Feature", "properties": { "name": "Crimée", "ville": "Paris", "mode": "Metro", "ligne": "Crimée", "Line": null }, "geometry": { "type": "Point", "coordinates": [ 2.37737, 48.89085 ] } },
{ "type": "Feature", "properties": { "name": "Corentin Cariou", "ville": "Paris", "mode": "Metro", "ligne": "Corentin Cariou", "Line": null }, "geometry": { "type": "Point", "coordinates": [ 2.3823, 48.89473 ] } },
{ "type": "Feature", "properties": { "name": "Porte de la Villette", "ville": "Paris", "mode": "Metro", "ligne": "Porte de la Villette", "Line": null }, "geometry": { "type": "Point", "coordinates": [ 2.38559, 48.8974 ] } },
{ "type": "Feature", "properties": { "name": "Le Peletier", "ville": "Paris", "mode": "Metro", "ligne": "Le Peletier", "Line": null }, "geometry": { "type": "Point", "coordinates": [ 2.34036, 48.87493 ] } },
{ "type": "Feature", "properties": { "name": "Cadet", "ville": "Paris", "mode": "Metro", "ligne": "Cadet", "Line": null }, "geometry": { "type": "Point", "coordinates": [ 2.34431, 48.87594 ] } },
{ "type": "Feature", "properties": { "name": "Pont Neuf", "ville": "Paris", "mode": "Metro", "ligne": "Pont Neuf", "Line": null }, "geometry": { "type": "Point", "coordinates": [ 2.34256, 48.85856 ] } },
{ "type": "Feature", "properties": { "name": "Sully - Morland", "ville": "Paris", "mode": "Metro", "ligne": "Sully - Morland", "Line": null }, "geometry": { "type": "Point", "coordinates": [ 2.36182, 48.8514 ] } },
{ "type": "Feature", "properties": { "name": "Pont Marie", "ville": "Paris", "mode": "Metro", "ligne": "Pont Marie", "Line": null }, "geometry": { "type": "Point", "coordinates": [ 2.35667, 48.85389 ] } },
{ "type": "Feature", "properties": { "name": "Place Monge", "ville": "Paris", "mode": "Metro", "ligne": "Place Monge", "Line": null }, "geometry": { "type": "Point", "coordinates": [ 2.35228, 48.84291 ] } },
{ "type": "Feature", "properties": { "name": "Censier - Daubenton", "ville": "Paris", "mode": "Metro", "ligne": "Censier - Daubenton", "Line": null }, "geometry": { "type": "Point", "coordinates": [ 2.35193, 48.84065 ] } },
{ "type": "Feature", "properties": { "name": "Les Gobelins", "ville": "Paris", "mode": "Metro", "ligne": "Les Gobelins", "Line": null }, "geometry": { "type": "Point", "coordinates": [ 2.35275, 48.83564 ] } },
{ "type": "Feature", "properties": { "name": "Pré Saint-Gervais", "ville": "Paris", "mode": "Metro", "ligne": "Pré Saint-Gervais", "Line": null }, "geometry": { "type": "Point", "coordinates": [ 2.39904, 48.87992 ] } },
{ "type": "Feature", "properties": { "name": "Danube", "ville": "Paris", "mode": "Metro", "ligne": "Danube", "Line": null }, "geometry": { "type": "Point", "coordinates": [ 2.39336, 48.88196 ] } },
{ "type": "Feature", "properties": { "name": "Mairie des Lilas", "ville": "Paris", "mode": "Metro", "ligne": "Mairie des Lilas", "Line": null }, "geometry": { "type": "Point", "coordinates": [ 2.41709, 48.87981 ] } },
{ "type": "Feature", "properties": { "name": "Saint-Fargeau", "ville": "Paris", "mode": "Metro", "ligne": "Saint-Fargeau", "Line": null }, "geometry": { "type": "Point", "coordinates": [ 2.40431, 48.87152 ] } },
{ "type": "Feature", "properties": { "name": "Pelleport", "ville": "Paris", "mode": "Metro", "ligne": "Pelleport", "Line": null }, "geometry": { "type": "Point", "coordinates": [ 2.40132, 48.8681 ] } },
{ "type": "Feature", "properties": { "name": "Saint-Marcel", "ville": "Paris", "mode": "Metro", "ligne": "Saint-Marcel", "Line": null }, "geometry": { "type": "Point", "coordinates": [ 2.36083, 48.83828 ] } },
{ "type": "Feature", "properties": { "name": "Campo-Formio", "ville": "Paris", "mode": "Metro", "ligne": "Campo-Formio", "Line": null }, "geometry": { "type": "Point", "coordinates": [ 2.35885, 48.83566 ] } },
{ "type": "Feature", "properties": { "name": "Guy Môquet", "ville": "Paris", "mode": "Metro", "ligne": "Guy Môquet", "Line": null }, "geometry": { "type": "Point", "coordinates": [ 2.32747, 48.89271 ] } },
{ "type": "Feature", "properties": { "name": "Porte de Saint-Ouen", "ville": "Paris", "mode": "Metro", "ligne": "Porte de Saint-Ouen", "Line": null }, "geometry": { "type": "Point", "coordinates": [ 2.3289, 48.89737 ] } },
{ "type": "Feature", "properties": { "name": "Garibaldi", "ville": "Paris", "mode": "Metro", "ligne": "Garibaldi", "Line": null }, "geometry": { "type": "Point", "coordinates": [ 2.33205, 48.90619 ] } },
{ "type": "Feature", "properties": { "name": "Tolbiac", "ville": "Paris", "mode": "Metro", "ligne": "Tolbiac", "Line": null }, "geometry": { "type": "Point", "coordinates": [ 2.35735, 48.82609 ] } },
{ "type": "Feature", "properties": { "name": "Maison Blanche", "ville": "Paris", "mode": "Metro", "ligne": "Maison Blanche", "Line": null }, "geometry": { "type": "Point", "coordinates": [ 2.3585, 48.82247 ] } },
{ "type": "Feature", "properties": { "name": "Porte d'Italie", "ville": "Paris", "mode": "Metro", "ligne": "Porte d'Italie", "Line": null }, "geometry": { "type": "Point", "coordinates": [ 2.35953, 48.81909 ] } },
{ "type": "Feature", "properties": { "name": "Les Agnettes", "ville": "Paris", "mode": "Metro", "ligne": "Les Agnettes", "Line": null }, "geometry": { "type": "Point", "coordinates": [ 2.2862, 48.92312 ] } },
{ "type": "Feature", "properties": { "name": "Asnières – Gennevilliers – Les Courtilles", "ville": "Paris", "mode": "Metro", "ligne": "Asnières – Gennevilliers – Les Courtilles", "Line": null }, "geometry": { "type": "Point", "coordinates": [ 2.28364, 48.93055 ] } },
{ "type": "Feature", "properties": { "name": "Fort d'Aubervilliers", "ville": "Paris", "mode": "Metro", "ligne": "Fort d'Aubervilliers", "Line": null }, "geometry": { "type": "Point", "coordinates": [ 2.40381, 48.91426 ] } },
{ "type": "Feature", "properties": { "name": "Aubervilliers - Pantin - Quatre Chemins", "ville": "Paris", "mode": "Metro", "ligne": "Aubervilliers - Pantin - Quatre Chemins", "Line": null }, "geometry": { "type": "Point", "coordinates": [ 2.39225, 48.90363 ] } },
{ "type": "Feature", "properties": { "name": "La Courneuve - 8 mai 1945", "ville": "Paris", "mode": "Metro", "ligne": "La Courneuve - 8 mai 1945", "Line": null }, "geometry": { "type": "Point", "coordinates": [ 2.41077, 48.92076 ] } },
{ "type": "Feature", "properties": { "name": "Champs-Élysées - Clemenceau", "ville": "Paris", "mode": "Metro", "ligne": "Champs-Élysées - Clemenceau", "Line": null }, "geometry": { "type": "Point", "coordinates": [ 2.31393, 48.86779 ] } },
{ "type": "Feature", "properties": { "name": "Créteil — L'Échat (Hôpital Henri Mondor)", "ville": "Paris", "mode": "Metro", "ligne": "Créteil — L'Échat (Hôpital Henri Mondor)", "Line": null }, "geometry": { "type": "Point", "coordinates": [ 2.44923, 48.79635 ] } },
{ "type": "Feature", "properties": { "name": "Créteil Université", "ville": "Paris", "mode": "Metro", "ligne": "Créteil Université", "Line": null }, "geometry": { "type": "Point", "coordinates": [ 2.45048, 48.78991 ] } },
{ "type": "Feature", "properties": { "name": "Créteil — Préfecture (Hôtel de Ville)", "ville": "Paris", "mode": "Metro", "ligne": "Créteil — Préfecture (Hôtel de Ville)", "Line": null }, "geometry": { "type": "Point", "coordinates": [ 2.45945, 48.77976 ] } },
{ "type": "Feature", "properties": { "name": "Maisons-Alfort — Les Juilliottes", "ville": "Paris", "mode": "Metro", "ligne": "Maisons-Alfort — Les Juilliottes", "Line": null }, "geometry": { "type": "Point", "coordinates": [ 2.44669, 48.80247 ] } },
{ "type": "Feature", "properties": { "name": "Maisons-Alfort — Stade", "ville": "Paris", "mode": "Metro", "ligne": "Maisons-Alfort — Stade", "Line": null }, "geometry": { "type": "Point", "coordinates": [ 2.43472, 48.80904 ] } },
{ "type": "Feature", "properties": { "name": "École Vétérinaire de Maisons-Alfort", "ville": "Paris", "mode": "Metro", "ligne": "École Vétérinaire de Maisons-Alfort", "Line": null }, "geometry": { "type": "Point", "coordinates": [ 2.42177, 48.81508 ] } },
{ "type": "Feature", "properties": { "name": "Charenton-Écoles", "ville": "Paris", "mode": "Metro", "ligne": "Charenton-Écoles", "Line": null }, "geometry": { "type": "Point", "coordinates": [ 2.41365, 48.82147 ] } },
{ "type": "Feature", "properties": { "name": "Mairie de Saint-Ouen", "ville": "Paris", "mode": "Metro", "ligne": "Mairie de Saint-Ouen", "Line": null }, "geometry": { "type": "Point", "coordinates": [ 2.33401, 48.91188 ] } },
{ "type": "Feature", "properties": { "name": "Carrefour Pleyel", "ville": "Paris", "mode": "Metro", "ligne": "Carrefour Pleyel", "Line": null }, "geometry": { "type": "Point", "coordinates": [ 2.34299, 48.9196 ] } },
{ "type": "Feature", "properties": { "name": "Villejuif - Léo Lagrange", "ville": "Paris", "mode": "Metro", "ligne": "Villejuif - Léo Lagrange", "Line": null }, "geometry": { "type": "Point", "coordinates": [ 2.36379, 48.80513 ] } },
{ "type": "Feature", "properties": { "name": "Villejuif–Louis Aragon", "ville": "Paris", "mode": "Metro", "ligne": "Villejuif–Louis Aragon", "Line": null }, "geometry": { "type": "Point", "coordinates": [ 2.36739, 48.78694 ] } },
{ "type": "Feature", "properties": { "name": "Villejuif - Paul Vaillant Couturier", "ville": "Paris", "mode": "Metro", "ligne": "Villejuif - Paul Vaillant Couturier", "Line": null }, "geometry": { "type": "Point", "coordinates": [ 2.36837, 48.79609 ] } },
{ "type": "Feature", "properties": { "name": "Le Kremlin-Bicêtre", "ville": "Paris", "mode": "Metro", "ligne": "Le Kremlin-Bicêtre", "Line": null }, "geometry": { "type": "Point", "coordinates": [ 2.36224, 48.81033 ] } },
{ "type": "Feature", "properties": { "name": "Saint-Sulpice", "ville": "Paris", "mode": "Metro", "ligne": "Saint-Sulpice", "Line": null }, "geometry": { "type": "Point", "coordinates": [ 2.33075, 48.85109 ] } },
{ "type": "Feature", "properties": { "name": "Montparnasse-Bienvenüe", "ville": "Paris", "mode": "Metro", "ligne": "Montparnasse-Bienvenüe", "Line": null }, "geometry": { "type": "Point", "coordinates": [ 2.32433, 48.84399 ] } },
{ "type": "Feature", "properties": { "name": "Château Landon", "ville": "Paris", "mode": "Metro", "ligne": "Château Landon", "Line": null }, "geometry": { "type": "Point", "coordinates": [ 2.36246, 48.8789 ] } },
{ "type": "Feature", "properties": { "name": "Église de Pantin", "ville": "Paris", "mode": "Metro", "ligne": "Église de Pantin", "Line": null }, "geometry": { "type": "Point", "coordinates": [ 2.41332, 48.89324 ] } },
{ "type": "Feature", "properties": { "name": "Liège", "ville": "Paris", "mode": "Metro", "ligne": "Liège", "Line": null }, "geometry": { "type": "Point", "coordinates": [ 2.32708, 48.8796 ] } },
{ "type": "Feature", "properties": { "name": "Saint-Denis Porte de Paris", "ville": "Paris", "mode": "Metro", "ligne": "Saint-Denis Porte de Paris", "Line": null }, "geometry": { "type": "Point", "coordinates": [ 2.35638, 48.93013 ] } },
{ "type": "Feature", "properties": { "name": "Saint-Denis-Université", "ville": "Paris", "mode": "Metro", "ligne": "Saint-Denis-Université", "Line": null }, "geometry": { "type": "Point", "coordinates": [ 2.36415, 48.94593 ] } },
{ "type": "Feature", "properties": { "name": "Bir-Hakeim", "ville": "Paris", "mode": "Metro", "ligne": "Bir-Hakeim", "Line": null }, "geometry": { "type": "Point", "coordinates": [ 2.2894, 48.8539 ] } },
{ "type": "Feature", "properties": { "name": "Billancourt", "ville": "Paris", "mode": "Metro", "ligne": "Billancourt", "Line": null }, "geometry": { "type": "Point", "coordinates": [ 2.23737, 48.83173 ] } },
{ "type": "Feature", "properties": { "name": "Pont de Sèvres", "ville": "Paris", "mode": "Metro", "ligne": "Pont de Sèvres", "Line": null }, "geometry": { "type": "Point", "coordinates": [ 2.23087, 48.82966 ] } },
{ "type": "Feature", "properties": { "name": "Porte de Choisy", "ville": "Paris", "mode": "Metro", "ligne": "Porte de Choisy", "Line": null }, "geometry": { "type": "Point", "coordinates": [ 2.3648, 48.82011 ] } },
{ "type": "Feature", "properties": { "name": "Porte d'Ivry", "ville": "Paris", "mode": "Metro", "ligne": "Porte d'Ivry", "Line": null }, "geometry": { "type": "Point", "coordinates": [ 2.36932, 48.82167 ] } },
{ "type": "Feature", "properties": { "name": "Pierre et Marie Curie", "ville": "Paris", "mode": "Metro", "ligne": "Pierre et Marie Curie", "Line": null }, "geometry": { "type": "Point", "coordinates": [ 2.37735, 48.8159 ] } },
{ "type": "Feature", "properties": { "name": "Mairie d'Ivry", "ville": "Paris", "mode": "Metro", "ligne": "Mairie d'Ivry", "Line": null }, "geometry": { "type": "Point", "coordinates": [ 2.384, 48.81099 ] } },
{ "type": "Feature", "properties": { "name": "Vaneau", "ville": "Paris", "mode": "Metro", "ligne": "Vaneau", "Line": null }, "geometry": { "type": "Point", "coordinates": [ 2.3219, 48.84914 ] } },
{ "type": "Feature", "properties": { "name": "Saint-Lazare", "ville": "Paris", "mode": "Metro", "ligne": "Saint-Lazare", "Line": null }, "geometry": { "type": "Point", "coordinates": [ 2.3279, 48.87572 ] } },
{ "type": "Feature", "properties": { "name": "Ternes", "ville": "Paris", "mode": "Metro", "ligne": "Ternes", "Line": null }, "geometry": { "type": "Point", "coordinates": [ 2.29912, 48.8782 ] } },
{ "type": "Feature", "properties": { "name": "Créteil — Pointe du Lac", "ville": "Paris", "mode": "Metro", "ligne": "Créteil — Pointe du Lac", "Line": null }, "geometry": { "type": "Point", "coordinates": [ 2.46438, 48.76872 ] } },
{ "type": "Feature", "properties": { "name": "Barbès - Rochechouart", "ville": "Paris", "mode": "Metro", "ligne": "Barbès - Rochechouart", "Line": null }, "geometry": { "type": "Point", "coordinates": [ 2.34954, 48.88377 ] } },
{ "type": "Feature", "properties": { "name": "Marcadet - Poissonniers", "ville": "Paris", "mode": "Metro", "ligne": "Marcadet - Poissonniers", "Line": null }, "geometry": { "type": "Point", "coordinates": [ 2.34967, 48.89159 ] } },
{ "type": "Feature", "properties": { "name": "Gare de Lyon", "ville": "Paris", "mode": "Metro", "ligne": "Gare de Lyon", "Line": null }, "geometry": { "type": "Point", "coordinates": [ 2.37376, 48.84332 ] } },
{ "type": "Feature", "properties": { "name": "Sèvres-Lecourbe", "ville": "Paris", "mode": "Metro", "ligne": "Sèvres-Lecourbe", "Line": null }, "geometry": { "type": "Point", "coordinates": [ 2.30958, 48.84562 ] } },
{ "type": "Feature", "properties": { "name": "Bobigny - Pablo Picasso", "ville": "Paris", "mode": "Metro", "ligne": "Bobigny - Pablo Picasso", "Line": null }, "geometry": { "type": "Point", "coordinates": [ 2.44919, 48.90641 ] } },
{ "type": "Feature", "properties": { "name": "Porte de Clignancourt", "ville": "Paris", "mode": "Metro", "ligne": "Porte de Clignancourt", "Line": null }, "geometry": { "type": "Point", "coordinates": [ 2.34467, 48.89753 ] } },
{ "type": "Feature", "properties": { "name": "Montparnasse-Bienvenüe", "ville": "Paris", "mode": "Metro", "ligne": "Montparnasse-Bienvenüe", "Line": null }, "geometry": { "type": "Point", "coordinates": [ 2.32116, 48.84193 ] } },
{ "type": "Feature", "properties": { "name": "Orly Sud", "ville": "Paris", "mode": "Metro", "ligne": "Orly Sud", "Line": null }, "geometry": { "type": "Point", "coordinates": [ 2.36991, 48.72901 ] } },
{ "type": "Feature", "properties": { "name": "Europe", "ville": "Paris", "mode": "Metro", "ligne": "Europe", "Line": null }, "geometry": { "type": "Point", "coordinates": [ 2.32219, 48.87875 ] } },
{ "type": "Feature", "properties": { "name": "Botzaris", "ville": "Paris", "mode": "Metro", "ligne": "Botzaris", "Line": null }, "geometry": { "type": "Point", "coordinates": [ 2.3886, 48.87958 ] } },
{ "type": "Feature", "properties": { "name": "Jaurès", "ville": "Paris", "mode": "Metro", "ligne": "Jaurès", "Line": null }, "geometry": { "type": "Point", "coordinates": [ 2.37033, 48.88259 ] } },
{ "type": "Feature", "properties": { "name": "Place des Fêtes", "ville": "Paris", "mode": "Metro", "ligne": "Place des Fêtes", "Line": null }, "geometry": { "type": "Point", "coordinates": [ 2.39356, 48.87677 ] } },
{ "type": "Feature", "properties": { "name": "Courcelles", "ville": "Paris", "mode": "Metro", "ligne": "Courcelles", "Line": null }, "geometry": { "type": "Point", "coordinates": [ 2.30438, 48.87939 ] } },
{ "type": "Feature", "properties": { "name": "Front Populaire", "ville": "Paris", "mode": "Metro", "ligne": "Front Populaire", "Line": null }, "geometry": { "type": "Point", "coordinates": [ 2.36577, 48.90687 ] } },
{ "type": "Feature", "properties": { "name": "Mairie de Montrouge", "ville": "Paris", "mode": "Metro", "ligne": "Mairie de Montrouge", "Line": null }, "geometry": { "type": "Point", "coordinates": [ 2.31952, 48.81823 ] } },
{ "type": "Feature", "properties": { "name": "Bobigny-Pantin (Raymond Queneau)", "ville": "Paris", "mode": "Metro", "ligne": "Bobigny-Pantin (Raymond Queneau)", "Line": null }, "geometry": { "type": "Point", "coordinates": [ 2.4251, 48.8956 ] } },
{ "type": "Feature", "properties": { "name": "Porte Maillot", "ville": "Paris", "mode": "Metro", "ligne": "Porte Maillot", "Line": null }, "geometry": { "type": "Point", "coordinates": [ 2.28177, 48.87799 ] } },
{ "type": "Feature", "properties": { "name": "Cour Saint-Émilion", "ville": "Paris", "mode": "Metro", "ligne": "Cour Saint-Émilion", "Line": null }, "geometry": { "type": "Point", "coordinates": [ 2.38566, 48.83345 ] } },
{ "type": "Feature", "properties": { "name": "Pont de Neuilly", "ville": "Paris", "mode": "Metro", "ligne": "Pont de Neuilly", "Line": null }, "geometry": { "type": "Point", "coordinates": [ 2.25965, 48.885 ] } },
{ "type": "Feature", "properties": { "name": "Anvers", "ville": "Paris", "mode": "Metro", "ligne": "Anvers", "Line": null }, "geometry": { "type": "Point", "coordinates": [ 2.34426, 48.88288 ] } },
{ "type": "Feature", "properties": { "name": "La Chapelle", "ville": "Paris", "mode": "Metro", "ligne": "La Chapelle", "Line": null }, "geometry": { "type": "Point", "coordinates": [ 2.36031, 48.88441 ] } },
{ "type": "Feature", "properties": { "name": "Gare d'Austerlitz", "ville": "Paris", "mode": "Metro", "ligne": "Gare d'Austerlitz", "Line": null }, "geometry": { "type": "Point", "coordinates": [ 2.36548, 48.8423 ] } },
{ "type": "Feature", "properties": { "name": "Quai de la Rapée", "ville": "Paris", "mode": "Metro", "ligne": "Quai de la Rapée", "Line": null }, "geometry": { "type": "Point", "coordinates": [ 2.3659, 48.84649 ] } },
{ "type": "Feature", "properties": { "name": "Sentier", "ville": "Paris", "mode": "Metro", "ligne": "Sentier", "Line": null }, "geometry": { "type": "Point", "coordinates": [ 2.34556, 48.86771 ] } },
{ "type": "Feature", "properties": { "name": "Hôtel de Ville", "ville": "Paris", "mode": "Metro", "ligne": "Hôtel de Ville", "Line": null }, "geometry": { "type": "Point", "coordinates": [ 2.35206, 48.85735 ] } },
{ "type": "Feature", "properties": { "name": "Gambetta", "ville": "Paris", "mode": "Metro", "ligne": "Gambetta", "Line": null }, "geometry": { "type": "Point", "coordinates": [ 2.39845, 48.86488 ] } },
{ "type": "Feature", "properties": { "name": "Trocadéro", "ville": "Paris", "mode": "Metro", "ligne": "Trocadéro", "Line": null }, "geometry": { "type": "Point", "coordinates": [ 2.28714, 48.86305 ] } },
{ "type": "Feature", "properties": { "name": "Pigalle", "ville": "Paris", "mode": "Metro", "ligne": "Pigalle", "Line": null }, "geometry": { "type": "Point", "coordinates": [ 2.33812, 48.88228 ] } },
{ "type": "Feature", "properties": { "name": "Château Rouge", "ville": "Paris", "mode": "Metro", "ligne": "Château Rouge", "Line": null }, "geometry": { "type": "Point", "coordinates": [ 2.34955, 48.88729 ] } },
{ "type": "Feature", "properties": { "name": "Jussieu", "ville": "Paris", "mode": "Metro", "ligne": "Jussieu", "Line": null }, "geometry": { "type": "Point", "coordinates": [ 2.35482, 48.84599 ] } },
{ "type": "Feature", "properties": { "name": "Cité", "ville": "Paris", "mode": "Metro", "ligne": "Cité", "Line": null }, "geometry": { "type": "Point", "coordinates": [ 2.34744, 48.85563 ] } },
{ "type": "Feature", "properties": { "name": "Gare Lille - Flandres", "ville": "Lille", "mode": "Metro", "ligne": "Gare Lille - Flandres", "Line": null }, "geometry": { "type": "Point", "coordinates": [ 3.07102, 50.63747 ] } },
{ "type": "Feature", "properties": { "name": "Triolo", "ville": "Lille", "mode": "Metro", "ligne": "Triolo", "Line": null }, "geometry": { "type": "Point", "coordinates": [ 3.14066, 50.61691 ] } },
{ "type": "Feature", "properties": { "name": "4 Cantons Stade Pierre Mauroy", "ville": "Lille", "mode": "Metro", "ligne": "4 Cantons Stade Pierre Mauroy", "Line": null }, "geometry": { "type": "Point", "coordinates": [ 3.13903, 50.60536 ] } },
{ "type": "Feature", "properties": { "name": "République - Beaux-Arts", "ville": "Lille", "mode": "Metro", "ligne": "République - Beaux-Arts", "Line": null }, "geometry": { "type": "Point", "coordinates": [ 3.06082, 50.63164 ] } },
{ "type": "Feature", "properties": { "name": "Rihour", "ville": "Lille", "mode": "Metro", "ligne": "Rihour", "Line": null }, "geometry": { "type": "Point", "coordinates": [ 3.06284, 50.63538 ] } },
{ "type": "Feature", "properties": { "name": "Villeneuve d'Ascq Hôtel de Ville", "ville": "Lille", "mode": "Metro", "ligne": "Villeneuve d'Ascq Hôtel de Ville", "Line": null }, "geometry": { "type": "Point", "coordinates": [ 3.13085, 50.61911 ] } },
{ "type": "Feature", "properties": { "name": "Pont de Bois", "ville": "Lille", "mode": "Metro", "ligne": "Pont de Bois", "Line": null }, "geometry": { "type": "Point", "coordinates": [ 3.12804, 50.62424 ] } },
{ "type": "Feature", "properties": { "name": "Porte des Postes", "ville": "Lille", "mode": "Metro", "ligne": "Porte des Postes", "Line": null }, "geometry": { "type": "Point", "coordinates": [ 3.05026, 50.61842 ] } },
{ "type": "Feature", "properties": { "name": "Lezennes", "ville": "Lille", "mode": "Metro", "ligne": "Lezennes", "Line": null }, "geometry": { "type": "Point", "coordinates": [ 3.11608, 50.62518 ] } },
{ "type": "Feature", "properties": { "name": "Hellemmes", "ville": "Lille", "mode": "Metro", "ligne": "Hellemmes", "Line": null }, "geometry": { "type": "Point", "coordinates": [ 3.10903, 50.62709 ] } },
{ "type": "Feature", "properties": { "name": "Marbrerie", "ville": "Lille", "mode": "Metro", "ligne": "Marbrerie", "Line": null }, "geometry": { "type": "Point", "coordinates": [ 3.09788, 50.63014 ] } },
{ "type": "Feature", "properties": { "name": "Fives", "ville": "Lille", "mode": "Metro", "ligne": "Fives", "Line": null }, "geometry": { "type": "Point", "coordinates": [ 3.09118, 50.63279 ] } },
{ "type": "Feature", "properties": { "name": "Roubaix - Charles de Gaulle", "ville": "Lille", "mode": "Metro", "ligne": "Roubaix - Charles de Gaulle", "Line": null }, "geometry": { "type": "Point", "coordinates": [ 3.17015, 50.68653 ] } },
{ "type": "Feature", "properties": { "name": "Caulier", "ville": "Lille", "mode": "Metro", "ligne": "Caulier", "Line": null }, "geometry": { "type": "Point", "coordinates": [ 3.08682, 50.63671 ] } },
{ "type": "Feature", "properties": { "name": "Saint-Maurice Pellevoisin", "ville": "Lille", "mode": "Metro", "ligne": "Saint-Maurice Pellevoisin", "Line": null }, "geometry": { "type": "Point", "coordinates": [ 3.0887, 50.64233 ] } },
{ "type": "Feature", "properties": { "name": "Mairie de Lille", "ville": "Lille", "mode": "Metro", "ligne": "Mairie de Lille", "Line": null }, "geometry": { "type": "Point", "coordinates": [ 3.07066, 50.63281 ] } },
{ "type": "Feature", "properties": { "name": "Porte de Valenciennes", "ville": "Lille", "mode": "Metro", "ligne": "Porte de Valenciennes", "Line": null }, "geometry": { "type": "Point", "coordinates": [ 3.07888, 50.62106 ] } },
{ "type": "Feature", "properties": { "name": "Roubaix - Grand Place", "ville": "Lille", "mode": "Metro", "ligne": "Roubaix - Grand Place", "Line": null }, "geometry": { "type": "Point", "coordinates": [ 3.17476, 50.69181 ] } },
{ "type": "Feature", "properties": { "name": "Gare - Jean Lebas", "ville": "Lille", "mode": "Metro", "ligne": "Gare - Jean Lebas", "Line": null }, "geometry": { "type": "Point", "coordinates": [ 3.16398, 50.6954 ] } },
{ "type": "Feature", "properties": { "name": "Alsace", "ville": "Lille", "mode": "Metro", "ligne": "Alsace", "Line": null }, "geometry": { "type": "Point", "coordinates": [ 3.161, 50.70071 ] } },
{ "type": "Feature", "properties": { "name": "Canteleu", "ville": "Lille", "mode": "Metro", "ligne": "Canteleu", "Line": null }, "geometry": { "type": "Point", "coordinates": [ 3.02444, 50.63709 ] } },
{ "type": "Feature", "properties": { "name": "Porte d'Arras", "ville": "Lille", "mode": "Metro", "ligne": "Porte d'Arras", "Line": null }, "geometry": { "type": "Point", "coordinates": [ 3.06228, 50.6176 ] } },
{ "type": "Feature", "properties": { "name": "Porte de Douai", "ville": "Lille", "mode": "Metro", "ligne": "Porte de Douai", "Line": null }, "geometry": { "type": "Point", "coordinates": [ 3.07213, 50.61807 ] } },
{ "type": "Feature", "properties": { "name": "Wasquehal - Hôtel de Ville", "ville": "Lille", "mode": "Metro", "ligne": "Wasquehal - Hôtel de Ville", "Line": null }, "geometry": { "type": "Point", "coordinates": [ 3.13148, 50.66976 ] } },
{ "type": "Feature", "properties": { "name": "Wasquehal - Pavé de Lille", "ville": "Lille", "mode": "Metro", "ligne": "Wasquehal - Pavé de Lille", "Line": null }, "geometry": { "type": "Point", "coordinates": [ 3.13007, 50.66397 ] } },
{ "type": "Feature", "properties": { "name": "Jean Jaurès", "ville": "Lille", "mode": "Metro", "ligne": "Jean Jaurès", "Line": null }, "geometry": { "type": "Point", "coordinates": [ 3.13479, 50.65845 ] } },
{ "type": "Feature", "properties": { "name": "Les Prés", "ville": "Lille", "mode": "Metro", "ligne": "Les Prés", "Line": null }, "geometry": { "type": "Point", "coordinates": [ 3.12644, 50.65009 ] } },
{ "type": "Feature", "properties": { "name": "Fort de Mons", "ville": "Lille", "mode": "Metro", "ligne": "Fort de Mons", "Line": null }, "geometry": { "type": "Point", "coordinates": [ 3.11935, 50.6421 ] } },
{ "type": "Feature", "properties": { "name": "Mairie de Mons", "ville": "Lille", "mode": "Metro", "ligne": "Mairie de Mons", "Line": null }, "geometry": { "type": "Point", "coordinates": [ 3.10982, 50.64229 ] } },
{ "type": "Feature", "properties": { "name": "Mons Sarts", "ville": "Lille", "mode": "Metro", "ligne": "Mons Sarts", "Line": null }, "geometry": { "type": "Point", "coordinates": [ 3.09928, 50.64213 ] } },
{ "type": "Feature", "properties": { "name": "Port de Lille", "ville": "Lille", "mode": "Metro", "ligne": "Port de Lille", "Line": null }, "geometry": { "type": "Point", "coordinates": [ 3.03575, 50.6299 ] } },
{ "type": "Feature", "properties": { "name": "Montebello", "ville": "Lille", "mode": "Metro", "ligne": "Montebello", "Line": null }, "geometry": { "type": "Point", "coordinates": [ 3.04544, 50.62205 ] } },
{ "type": "Feature", "properties": { "name": "Gambetta", "ville": "Lille", "mode": "Metro", "ligne": "Gambetta", "Line": null }, "geometry": { "type": "Point", "coordinates": [ 3.05272, 50.62694 ] } },
{ "type": "Feature", "properties": { "name": "Bois Blancs", "ville": "Lille", "mode": "Metro", "ligne": "Bois Blancs", "Line": null }, "geometry": { "type": "Point", "coordinates": [ 3.03079, 50.63391 ] } },
{ "type": "Feature", "properties": { "name": "Lomme - Lambersart", "ville": "Lille", "mode": "Metro", "ligne": "Lomme - Lambersart", "Line": null }, "geometry": { "type": "Point", "coordinates": [ 3.01872, 50.64067 ] } },
{ "type": "Feature", "properties": { "name": "Pont Supérieur", "ville": "Lille", "mode": "Metro", "ligne": "Pont Supérieur", "Line": null }, "geometry": { "type": "Point", "coordinates": [ 3.01392, 50.6444 ] } },
{ "type": "Feature", "properties": { "name": "Mitterie", "ville": "Lille", "mode": "Metro", "ligne": "Mitterie", "Line": null }, "geometry": { "type": "Point", "coordinates": [ 3.00741, 50.64675 ] } },
{ "type": "Feature", "properties": { "name": "Maison des Enfants", "ville": "Lille", "mode": "Metro", "ligne": "Maison des Enfants", "Line": null }, "geometry": { "type": "Point", "coordinates": [ 2.99523, 50.64633 ] } },
{ "type": "Feature", "properties": { "name": "Bourg", "ville": "Lille", "mode": "Metro", "ligne": "Bourg", "Line": null }, "geometry": { "type": "Point", "coordinates": [ 2.9852, 50.64559 ] } },
{ "type": "Feature", "properties": { "name": "Saint-Philibert", "ville": "Lille", "mode": "Metro", "ligne": "Saint-Philibert", "Line": null }, "geometry": { "type": "Point", "coordinates": [ 2.97434, 50.65213 ] } },
{ "type": "Feature", "properties": { "name": "CHR Oscar Lambret", "ville": "Lille", "mode": "Metro", "ligne": "CHR Oscar Lambret", "Line": null }, "geometry": { "type": "Point", "coordinates": [ 3.03644, 50.61308 ] } },
{ "type": "Feature", "properties": { "name": "CHR B. Calmette", "ville": "Lille", "mode": "Metro", "ligne": "CHR B. Calmette", "Line": null }, "geometry": { "type": "Point", "coordinates": [ 3.03897, 50.60804 ] } },
{ "type": "Feature", "properties": { "name": "Lille Grand Palais", "ville": "Lille", "mode": "Metro", "ligne": "Lille Grand Palais", "Line": null }, "geometry": { "type": "Point", "coordinates": [ 3.07492, 50.62965 ] } },
{ "type": "Feature", "properties": { "name": "Mercure", "ville": "Lille", "mode": "Metro", "ligne": "Mercure", "Line": null }, "geometry": { "type": "Point", "coordinates": [ 3.1605, 50.70477 ] } },
{ "type": "Feature", "properties": { "name": "Carliers", "ville": "Lille", "mode": "Metro", "ligne": "Carliers", "Line": null }, "geometry": { "type": "Point", "coordinates": [ 3.15971, 50.71097 ] } },
{ "type": "Feature", "properties": { "name": "Tourcoing - Sébastopol", "ville": "Lille", "mode": "Metro", "ligne": "Tourcoing - Sébastopol", "Line": null }, "geometry": { "type": "Point", "coordinates": [ 3.16262, 50.71728 ] } },
{ "type": "Feature", "properties": { "name": "Tourcoing - Centre", "ville": "Lille", "mode": "Metro", "ligne": "Tourcoing - Centre", "Line": null }, "geometry": { "type": "Point", "coordinates": [ 3.16, 50.72094 ] } },
{ "type": "Feature", "properties": { "name": "Colbert", "ville": "Lille", "mode": "Metro", "ligne": "Colbert", "Line": null }, "geometry": { "type": "Point", "coordinates": [ 3.15667, 50.72584 ] } },
{ "type": "Feature", "properties": { "name": "C.H. Dron", "ville": "Lille", "mode": "Metro", "ligne": "C.H. Dron", "Line": null }, "geometry": { "type": "Point", "coordinates": [ 3.1809, 50.7434 ] } },
{ "type": "Feature", "properties": { "name": "Phalempins", "ville": "Lille", "mode": "Metro", "ligne": "Phalempins", "Line": null }, "geometry": { "type": "Point", "coordinates": [ 3.15763, 50.73234 ] } },
{ "type": "Feature", "properties": { "name": "Bourgogne", "ville": "Lille", "mode": "Metro", "ligne": "Bourgogne", "Line": null }, "geometry": { "type": "Point", "coordinates": [ 3.17967, 50.73947 ] } },
{ "type": "Feature", "properties": { "name": "Pont de Neuville", "ville": "Lille", "mode": "Metro", "ligne": "Pont de Neuville", "Line": null }, "geometry": { "type": "Point", "coordinates": [ 3.17062, 50.73682 ] } },
{ "type": "Feature", "properties": { "name": "Cormontaigne", "ville": "Lille", "mode": "Metro", "ligne": "Cormontaigne", "Line": null }, "geometry": { "type": "Point", "coordinates": [ 3.04028, 50.6262 ] } },
{ "type": "Feature", "properties": { "name": "Eurotéléport", "ville": "Lille", "mode": "Metro", "ligne": "Eurotéléport", "Line": null }, "geometry": { "type": "Point", "coordinates": [ 3.17934, 50.69084 ] } },
{ "type": "Feature", "properties": { "name": "Cité Scientifique Professeur Gabillard", "ville": "Lille", "mode": "Metro", "ligne": "Cité Scientifique Professeur Gabillard", "Line": null }, "geometry": { "type": "Point", "coordinates": [ 3.1424, 50.61159 ] } },
{ "type": "Feature", "properties": { "name": "Croix Centre", "ville": "Lille", "mode": "Metro", "ligne": "Croix Centre", "Line": null }, "geometry": { "type": "Point", "coordinates": [ 3.14605, 50.67468 ] } },
{ "type": "Feature", "properties": { "name": "Croix Mairie", "ville": "Lille", "mode": "Metro", "ligne": "Croix Mairie", "Line": null }, "geometry": { "type": "Point", "coordinates": [ 3.15629, 50.67926 ] } },
{ "type": "Feature", "properties": { "name": "Wazemmes", "ville": "Lille", "mode": "Metro", "ligne": "Wazemmes", "Line": null }, "geometry": { "type": "Point", "coordinates": [ 3.0516, 50.62346 ] } },
{ "type": "Feature", "properties": { "name": "Lille Europe", "ville": "Lille", "mode": "Metro", "ligne": "Lille Europe", "Line": null }, "geometry": { "type": "Point", "coordinates": [ 3.07636, 50.63927 ] } },
{ "type": "Feature", "properties": { "name": "Épeule - Montesquieu", "ville": "Lille", "mode": "Metro", "ligne": "Épeule - Montesquieu", "Line": null }, "geometry": { "type": "Point", "coordinates": [ 3.16307, 50.68394 ] } },
{ "type": "Feature", "properties": { "name": "Gorge de Loup", "ville": "Lyon", "mode": "Metro", "ligne": "Gorge de Loup", "Line": null }, "geometry": { "type": "Point", "coordinates": [ 4.8055, 45.76644 ] } },
{ "type": "Feature", "properties": { "name": "Sans Souci", "ville": "Lyon", "mode": "Metro", "ligne": "Sans Souci", "Line": null }, "geometry": { "type": "Point", "coordinates": [ 4.86525, 45.74758 ] } },
{ "type": "Feature", "properties": { "name": "Guillotière", "ville": "Lyon", "mode": "Metro", "ligne": "Guillotière", "Line": null }, "geometry": { "type": "Point", "coordinates": [ 4.84284, 45.75535 ] } },
{ "type": "Feature", "properties": { "name": "Vieux Lyon - Cathédrale Saint-Jean", "ville": "Lyon", "mode": "Metro", "ligne": "Vieux Lyon - Cathédrale Saint-Jean", "Line": null }, "geometry": { "type": "Point", "coordinates": [ 4.82562, 45.76024 ] } },
{ "type": "Feature", "properties": { "name": "Monplaisir - Lumière", "ville": "Lyon", "mode": "Metro", "ligne": "Monplaisir - Lumière", "Line": null }, "geometry": { "type": "Point", "coordinates": [ 4.87138, 45.74552 ] } },
{ "type": "Feature", "properties": { "name": "Bellecour", "ville": "Lyon", "mode": "Metro", "ligne": "Bellecour", "Line": null }, "geometry": { "type": "Point", "coordinates": [ 4.83312, 45.75757 ] } },
{ "type": "Feature", "properties": { "name": "Garibaldi", "ville": "Lyon", "mode": "Metro", "ligne": "Garibaldi", "Line": null }, "geometry": { "type": "Point", "coordinates": [ 4.85349, 45.75162 ] } },
{ "type": "Feature", "properties": { "name": "Saxe - Gambetta", "ville": "Lyon", "mode": "Metro", "ligne": "Saxe - Gambetta", "Line": null }, "geometry": { "type": "Point", "coordinates": [ 4.84668, 45.75328 ] } },
{ "type": "Feature", "properties": { "name": "Valmy", "ville": "Lyon", "mode": "Metro", "ligne": "Valmy", "Line": null }, "geometry": { "type": "Point", "coordinates": [ 4.80547, 45.7746 ] } },
{ "type": "Feature", "properties": { "name": "Grange Blanche", "ville": "Lyon", "mode": "Metro", "ligne": "Grange Blanche", "Line": null }, "geometry": { "type": "Point", "coordinates": [ 4.87888, 45.743 ] } },
{ "type": "Feature", "properties": { "name": "Laennec", "ville": "Lyon", "mode": "Metro", "ligne": "Laennec", "Line": null }, "geometry": { "type": "Point", "coordinates": [ 4.88658, 45.73837 ] } },
{ "type": "Feature", "properties": { "name": "Cordeliers", "ville": "Lyon", "mode": "Metro", "ligne": "Cordeliers", "Line": null }, "geometry": { "type": "Point", "coordinates": [ 4.83583, 45.76331 ] } },
{ "type": "Feature", "properties": { "name": "Mermoz - Pinel", "ville": "Lyon", "mode": "Metro", "ligne": "Mermoz - Pinel", "Line": null }, "geometry": { "type": "Point", "coordinates": [ 4.8873, 45.73056 ] } },
{ "type": "Feature", "properties": { "name": "Hôtel de Ville - Louis Pradel", "ville": "Lyon", "mode": "Metro", "ligne": "Hôtel de Ville - Louis Pradel", "Line": null }, "geometry": { "type": "Point", "coordinates": [ 4.83606, 45.76727 ] } },
{ "type": "Feature", "properties": { "name": "Parilly", "ville": "Lyon", "mode": "Metro", "ligne": "Parilly", "Line": null }, "geometry": { "type": "Point", "coordinates": [ 4.88755, 45.71952 ] } },
{ "type": "Feature", "properties": { "name": "Jean Macé", "ville": "Lyon", "mode": "Metro", "ligne": "Jean Macé", "Line": null }, "geometry": { "type": "Point", "coordinates": [ 4.84232, 45.74592 ] } },
{ "type": "Feature", "properties": { "name": "Debourg", "ville": "Lyon", "mode": "Metro", "ligne": "Debourg", "Line": null }, "geometry": { "type": "Point", "coordinates": [ 4.83348, 45.73107 ] } },
{ "type": "Feature", "properties": { "name": "Croix-Paquet", "ville": "Lyon", "mode": "Metro", "ligne": "Croix-Paquet", "Line": null }, "geometry": { "type": "Point", "coordinates": [ 4.8362, 45.77101 ] } },
{ "type": "Feature", "properties": { "name": "Croix-Rousse", "ville": "Lyon", "mode": "Metro", "ligne": "Croix-Rousse", "Line": null }, "geometry": { "type": "Point", "coordinates": [ 4.832, 45.77451 ] } },
{ "type": "Feature", "properties": { "name": "Saint-Just", "ville": "Lyon", "mode": "Metro", "ligne": "Saint-Just", "Line": null }, "geometry": { "type": "Point", "coordinates": [ 4.81639, 45.75718 ] } },
{ "type": "Feature", "properties": { "name": "Fourvière", "ville": "Lyon", "mode": "Metro", "ligne": "Fourvière", "Line": null }, "geometry": { "type": "Point", "coordinates": [ 4.82148, 45.76238 ] } },
{ "type": "Feature", "properties": { "name": "Stade de Gerland", "ville": "Lyon", "mode": "Metro", "ligne": "Stade de Gerland", "Line": null }, "geometry": { "type": "Point", "coordinates": [ 4.83086, 45.72674 ] } },
{ "type": "Feature", "properties": { "name": "Hénon", "ville": "Lyon", "mode": "Metro", "ligne": "Hénon", "Line": null }, "geometry": { "type": "Point", "coordinates": [ 4.8275, 45.77944 ] } },
{ "type": "Feature", "properties": { "name": "Cuire", "ville": "Lyon", "mode": "Metro", "ligne": "Cuire", "Line": null }, "geometry": { "type": "Point", "coordinates": [ 4.8329, 45.78553 ] } },
{ "type": "Feature", "properties": { "name": "Ampère - Victor Hugo", "ville": "Lyon", "mode": "Metro", "ligne": "Ampère - Victor Hugo", "Line": null }, "geometry": { "type": "Point", "coordinates": [ 4.8292, 45.75304 ] } },
{ "type": "Feature", "properties": { "name": "Masséna", "ville": "Lyon", "mode": "Metro", "ligne": "Masséna", "Line": null }, "geometry": { "type": "Point", "coordinates": [ 4.85342, 45.76957 ] } },
{ "type": "Feature", "properties": { "name": "Foch", "ville": "Lyon", "mode": "Metro", "ligne": "Foch", "Line": null }, "geometry": { "type": "Point", "coordinates": [ 4.8444, 45.76874 ] } },
{ "type": "Feature", "properties": { "name": "Place Guichard - Bourse du Travail", "ville": "Lyon", "mode": "Metro", "ligne": "Place Guichard - Bourse du Travail", "Line": null }, "geometry": { "type": "Point", "coordinates": [ 4.84739, 45.75919 ] } },
{ "type": "Feature", "properties": { "name": "Gare Part-Dieu - Vivier Merle", "ville": "Lyon", "mode": "Metro", "ligne": "Gare Part-Dieu - Vivier Merle", "Line": null }, "geometry": { "type": "Point", "coordinates": [ 4.85744, 45.76161 ] } },
{ "type": "Feature", "properties": { "name": "Brotteaux", "ville": "Lyon", "mode": "Metro", "ligne": "Brotteaux", "Line": null }, "geometry": { "type": "Point", "coordinates": [ 4.85938, 45.76712 ] } },
{ "type": "Feature", "properties": { "name": "Charpennes - Charles Hernu", "ville": "Lyon", "mode": "Metro", "ligne": "Charpennes - Charles Hernu", "Line": null }, "geometry": { "type": "Point", "coordinates": [ 4.86318, 45.77044 ] } },
{ "type": "Feature", "properties": { "name": "Gare de Vénissieux", "ville": "Lyon", "mode": "Metro", "ligne": "Gare de Vénissieux", "Line": null }, "geometry": { "type": "Point", "coordinates": [ 4.88802, 45.70546 ] } },
{ "type": "Feature", "properties": { "name": "République - Villeurbanne", "ville": "Lyon", "mode": "Metro", "ligne": "République - Villeurbanne", "Line": null }, "geometry": { "type": "Point", "coordinates": [ 4.87399, 45.77056 ] } },
{ "type": "Feature", "properties": { "name": "Gratte-Ciel", "ville": "Lyon", "mode": "Metro", "ligne": "Gratte-Ciel", "Line": null }, "geometry": { "type": "Point", "coordinates": [ 4.8823, 45.76903 ] } },
{ "type": "Feature", "properties": { "name": "Flachet - Alain Gilles", "ville": "Lyon", "mode": "Metro", "ligne": "Flachet - Alain Gilles", "Line": null }, "geometry": { "type": "Point", "coordinates": [ 4.88928, 45.76774 ] } },
{ "type": "Feature", "properties": { "name": "Cusset", "ville": "Lyon", "mode": "Metro", "ligne": "Cusset", "Line": null }, "geometry": { "type": "Point", "coordinates": [ 4.90084, 45.76562 ] } },
{ "type": "Feature", "properties": { "name": "Laurent Bonnevay - Astroballe", "ville": "Lyon", "mode": "Metro", "ligne": "Laurent Bonnevay - Astroballe", "Line": null }, "geometry": { "type": "Point", "coordinates": [ 4.90882, 45.76412 ] } },
{ "type": "Feature", "properties": { "name": "Vaulx-en-Velin - La Soie", "ville": "Lyon", "mode": "Metro", "ligne": "Vaulx-en-Velin - La Soie", "Line": null }, "geometry": { "type": "Point", "coordinates": [ 4.92195, 45.76122 ] } },
{ "type": "Feature", "properties": { "name": "Gare d'Oullins", "ville": "Lyon", "mode": "Metro", "ligne": "Gare d'Oullins", "Line": null }, "geometry": { "type": "Point", "coordinates": [ 4.81453, 45.71667 ] } },
{ "type": "Feature", "properties": { "name": "Place Jean Jaurès", "ville": "Lyon", "mode": "Metro", "ligne": "Place Jean Jaurès", "Line": null }, "geometry": { "type": "Point", "coordinates": [ 4.83734, 45.73756 ] } },
{ "type": "Feature", "properties": { "name": "Gare de Vaise", "ville": "Lyon", "mode": "Metro", "ligne": "Gare de Vaise", "Line": null }, "geometry": { "type": "Point", "coordinates": [ 4.80454, 45.78056 ] } },
{ "type": "Feature", "properties": { "name": "Perrache", "ville": "Lyon", "mode": "Metro", "ligne": "Perrache", "Line": null }, "geometry": { "type": "Point", "coordinates": [ 4.82681, 45.74961 ] } },
{ "type": "Feature", "properties": { "name": "Minimes - Théâtres romains", "ville": "Lyon", "mode": "Metro", "ligne": "Minimes - Théâtres romains", "Line": null }, "geometry": { "type": "Point", "coordinates": [ 4.82138, 45.75864 ] } },
{ "type": "Feature", "properties": { "name": "Rond-Point du Prado", "ville": "Marseille", "mode": "Metro", "ligne": "Rond-Point du Prado", "Line": null }, "geometry": { "type": "Point", "coordinates": [ 5.39265, 43.27133 ] } },
{ "type": "Feature", "properties": { "name": "La Rose", "ville": "Marseille", "mode": "Metro", "ligne": "La Rose", "Line": null }, "geometry": { "type": "Point", "coordinates": [ 5.42969, 43.33315 ] } },
{ "type": "Feature", "properties": { "name": "National", "ville": "Marseille", "mode": "Metro", "ligne": "National", "Line": null }, "geometry": { "type": "Point", "coordinates": [ 5.37304, 43.31516 ] } },
{ "type": "Feature", "properties": { "name": "Bougainville", "ville": "Marseille", "mode": "Metro", "ligne": "Bougainville", "Line": null }, "geometry": { "type": "Point", "coordinates": [ 5.37139, 43.32084 ] } },
{ "type": "Feature", "properties": { "name": "Joliette", "ville": "Marseille", "mode": "Metro", "ligne": "Joliette", "Line": null }, "geometry": { "type": "Point", "coordinates": [ 5.36793, 43.30388 ] } },
{ "type": "Feature", "properties": { "name": "Jules Guesde", "ville": "Marseille", "mode": "Metro", "ligne": "Jules Guesde", "Line": null }, "geometry": { "type": "Point", "coordinates": [ 5.374, 43.30194 ] } },
{ "type": "Feature", "properties": { "name": "Noailles", "ville": "Marseille", "mode": "Metro", "ligne": "Noailles", "Line": null }, "geometry": { "type": "Point", "coordinates": [ 5.38118, 43.29684 ] } },
{ "type": "Feature", "properties": { "name": "Frais Vallon", "ville": "Marseille", "mode": "Metro", "ligne": "Frais Vallon", "Line": null }, "geometry": { "type": "Point", "coordinates": [ 5.42318, 43.32549 ] } },
{ "type": "Feature", "properties": { "name": "Malpassé", "ville": "Marseille", "mode": "Metro", "ligne": "Malpassé", "Line": null }, "geometry": { "type": "Point", "coordinates": [ 5.4164, 43.32101 ] } },
{ "type": "Feature", "properties": { "name": "Saint-Just", "ville": "Marseille", "mode": "Metro", "ligne": "Saint-Just", "Line": null }, "geometry": { "type": "Point", "coordinates": [ 5.40643, 43.31547 ] } },
{ "type": "Feature", "properties": { "name": "Chartreux", "ville": "Marseille", "mode": "Metro", "ligne": "Chartreux", "Line": null }, "geometry": { "type": "Point", "coordinates": [ 5.40146, 43.30914 ] } },
{ "type": "Feature", "properties": { "name": "Cinq Avenues Longchamp", "ville": "Marseille", "mode": "Metro", "ligne": "Cinq Avenues Longchamp", "Line": null }, "geometry": { "type": "Point", "coordinates": [ 5.39631, 43.30416 ] } },
{ "type": "Feature", "properties": { "name": "Réformés - Canebière", "ville": "Marseille", "mode": "Metro", "ligne": "Réformés - Canebière", "Line": null }, "geometry": { "type": "Point", "coordinates": [ 5.38628, 43.30048 ] } },
{ "type": "Feature", "properties": { "name": "Colbert", "ville": "Marseille", "mode": "Metro", "ligne": "Colbert", "Line": null }, "geometry": { "type": "Point", "coordinates": [ 5.37429, 43.3003 ] } },
{ "type": "Feature", "properties": { "name": "Vieux Port", "ville": "Marseille", "mode": "Metro", "ligne": "Vieux Port", "Line": null }, "geometry": { "type": "Point", "coordinates": [ 5.3742, 43.29557 ] } },
{ "type": "Feature", "properties": { "name": "Baille", "ville": "Marseille", "mode": "Metro", "ligne": "Baille", "Line": null }, "geometry": { "type": "Point", "coordinates": [ 5.39198, 43.28811 ] } },
{ "type": "Feature", "properties": { "name": "La Timone", "ville": "Marseille", "mode": "Metro", "ligne": "La Timone", "Line": null }, "geometry": { "type": "Point", "coordinates": [ 5.40042, 43.29113 ] } },
{ "type": "Feature", "properties": { "name": "La Fourragère", "ville": "Marseille", "mode": "Metro", "ligne": "La Fourragère", "Line": null }, "geometry": { "type": "Point", "coordinates": [ 5.4241, 43.30381 ] } },
{ "type": "Feature", "properties": { "name": "Louis Armand", "ville": "Marseille", "mode": "Metro", "ligne": "Louis Armand", "Line": null }, "geometry": { "type": "Point", "coordinates": [ 5.41357, 43.29997 ] } },
{ "type": "Feature", "properties": { "name": "La Blancarde", "ville": "Marseille", "mode": "Metro", "ligne": "La Blancarde", "Line": null }, "geometry": { "type": "Point", "coordinates": [ 5.40621, 43.29555 ] } },
{ "type": "Feature", "properties": { "name": "Saint-Barnabé", "ville": "Marseille", "mode": "Metro", "ligne": "Saint-Barnabé", "Line": null }, "geometry": { "type": "Point", "coordinates": [ 5.41879, 43.30331 ] } },
{ "type": "Feature", "properties": { "name": "Désirée Clary", "ville": "Marseille", "mode": "Metro", "ligne": "Désirée Clary", "Line": null }, "geometry": { "type": "Point", "coordinates": [ 5.37222, 43.30932 ] } },
{ "type": "Feature", "properties": { "name": "Estrangin - Préfecture", "ville": "Marseille", "mode": "Metro", "ligne": "Estrangin - Préfecture", "Line": null }, "geometry": { "type": "Point", "coordinates": [ 5.37793, 43.29015 ] } },
{ "type": "Feature", "properties": { "name": "Saint-Charles", "ville": "Marseille", "mode": "Metro", "ligne": "Saint-Charles", "Line": null }, "geometry": { "type": "Point", "coordinates": [ 5.38004, 43.30239 ] } },
{ "type": "Feature", "properties": { "name": "Saint-Barnabé", "ville": "Marseille", "mode": "Metro", "ligne": "Saint-Barnabé", "Line": null }, "geometry": { "type": "Point", "coordinates": [ 5.41879, 43.30333 ] } },
{ "type": "Feature", "properties": { "name": "Basso Cambo", "ville": "Toulouse", "mode": "Metro", "ligne": "Basso Cambo", "Line": null }, "geometry": { "type": "Point", "coordinates": [ 1.39228, 43.56994 ] } },
{ "type": "Feature", "properties": { "name": "Compans Caffarelli", "ville": "Toulouse", "mode": "Metro", "ligne": "Compans Caffarelli", "Line": null }, "geometry": { "type": "Point", "coordinates": [ 1.43584, 43.61088 ] } },
{ "type": "Feature", "properties": { "name": "Minimes - Claude Nougaro", "ville": "Toulouse", "mode": "Metro", "ligne": "Minimes - Claude Nougaro", "Line": null }, "geometry": { "type": "Point", "coordinates": [ 1.4357, 43.6204 ] } },
{ "type": "Feature", "properties": { "name": "Trois Cocus", "ville": "Toulouse", "mode": "Metro", "ligne": "Trois Cocus", "Line": null }, "geometry": { "type": "Point", "coordinates": [ 1.44418, 43.63804 ] } },
{ "type": "Feature", "properties": { "name": "Borderouge", "ville": "Toulouse", "mode": "Metro", "ligne": "Borderouge", "Line": null }, "geometry": { "type": "Point", "coordinates": [ 1.45257, 43.64078 ] } },
{ "type": "Feature", "properties": { "name": "Faculté de Pharmacie", "ville": "Toulouse", "mode": "Metro", "ligne": "Faculté de Pharmacie", "Line": null }, "geometry": { "type": "Point", "coordinates": [ 1.46451, 43.56809 ] } },
{ "type": "Feature", "properties": { "name": "Rangueil", "ville": "Toulouse", "mode": "Metro", "ligne": "Rangueil", "Line": null }, "geometry": { "type": "Point", "coordinates": [ 1.46188, 43.57479 ] } },
{ "type": "Feature", "properties": { "name": "Saouzelong", "ville": "Toulouse", "mode": "Metro", "ligne": "Saouzelong", "Line": null }, "geometry": { "type": "Point", "coordinates": [ 1.45928, 43.57953 ] } },
{ "type": "Feature", "properties": { "name": "Saint-Agne SNCF", "ville": "Toulouse", "mode": "Metro", "ligne": "Saint-Agne SNCF", "Line": null }, "geometry": { "type": "Point", "coordinates": [ 1.44988, 43.58034 ] } },
{ "type": "Feature", "properties": { "name": "Empalot", "ville": "Toulouse", "mode": "Metro", "ligne": "Empalot", "Line": null }, "geometry": { "type": "Point", "coordinates": [ 1.44209, 43.57985 ] } },
{ "type": "Feature", "properties": { "name": "Carmes", "ville": "Toulouse", "mode": "Metro", "ligne": "Carmes", "Line": null }, "geometry": { "type": "Point", "coordinates": [ 1.44545, 43.59776 ] } },
{ "type": "Feature", "properties": { "name": "Jean Jaurès", "ville": "Toulouse", "mode": "Metro", "ligne": "Jean Jaurès", "Line": null }, "geometry": { "type": "Point", "coordinates": [ 1.4488, 43.60574 ] } },
{ "type": "Feature", "properties": { "name": "Université Paul Sabatier", "ville": "Toulouse", "mode": "Metro", "ligne": "Université Paul Sabatier", "Line": null }, "geometry": { "type": "Point", "coordinates": [ 1.46322, 43.56097 ] } },
{ "type": "Feature", "properties": { "name": "Ramonville", "ville": "Toulouse", "mode": "Metro", "ligne": "Ramonville", "Line": null }, "geometry": { "type": "Point", "coordinates": [ 1.47638, 43.55578 ] } },
{ "type": "Feature", "properties": { "name": "Jolimont", "ville": "Toulouse", "mode": "Metro", "ligne": "Jolimont", "Line": null }, "geometry": { "type": "Point", "coordinates": [ 1.46338, 43.61528 ] } },
{ "type": "Feature", "properties": { "name": "Capitole", "ville": "Toulouse", "mode": "Metro", "ligne": "Capitole", "Line": null }, "geometry": { "type": "Point", "coordinates": [ 1.44538, 43.60448 ] } },
{ "type": "Feature", "properties": { "name": "Esquirol", "ville": "Toulouse", "mode": "Metro", "ligne": "Esquirol", "Line": null }, "geometry": { "type": "Point", "coordinates": [ 1.44391, 43.60015 ] } },
{ "type": "Feature", "properties": { "name": "Arènes", "ville": "Toulouse", "mode": "Metro", "ligne": "Arènes", "Line": null }, "geometry": { "type": "Point", "coordinates": [ 1.41854, 43.5934 ] } },
{ "type": "Feature", "properties": { "name": "Fontaine Lestang", "ville": "Toulouse", "mode": "Metro", "ligne": "Fontaine Lestang", "Line": null }, "geometry": { "type": "Point", "coordinates": [ 1.41841, 43.58753 ] } },
{ "type": "Feature", "properties": { "name": "Mermoz", "ville": "Toulouse", "mode": "Metro", "ligne": "Mermoz", "Line": null }, "geometry": { "type": "Point", "coordinates": [ 1.4152, 43.58352 ] } },
{ "type": "Feature", "properties": { "name": "Bagatelle", "ville": "Toulouse", "mode": "Metro", "ligne": "Bagatelle", "Line": null }, "geometry": { "type": "Point", "coordinates": [ 1.41213, 43.57989 ] } },
{ "type": "Feature", "properties": { "name": "Mirail Université", "ville": "Toulouse", "mode": "Metro", "ligne": "Mirail Université", "Line": null }, "geometry": { "type": "Point", "coordinates": [ 1.40203, 43.57459 ] } },
{ "type": "Feature", "properties": { "name": "Reynerie", "ville": "Toulouse", "mode": "Metro", "ligne": "Reynerie", "Line": null }, "geometry": { "type": "Point", "coordinates": [ 1.40189, 43.57085 ] } },
{ "type": "Feature", "properties": { "name": "Bellefontaine", "ville": "Toulouse", "mode": "Metro", "ligne": "Bellefontaine", "Line": null }, "geometry": { "type": "Point", "coordinates": [ 1.3983, 43.56608 ] } },
{ "type": "Feature", "properties": { "name": "Saint-Cyprien République", "ville": "Toulouse", "mode": "Metro", "ligne": "Saint-Cyprien République", "Line": null }, "geometry": { "type": "Point", "coordinates": [ 1.43166, 43.59799 ] } },
{ "type": "Feature", "properties": { "name": "Canal du Midi", "ville": "Toulouse", "mode": "Metro", "ligne": "Canal du Midi", "Line": null }, "geometry": { "type": "Point", "coordinates": [ 1.43376, 43.61537 ] } },
{ "type": "Feature", "properties": { "name": "Barrière de Paris", "ville": "Toulouse", "mode": "Metro", "ligne": "Barrière de Paris", "Line": null }, "geometry": { "type": "Point", "coordinates": [ 1.43382, 43.62678 ] } },
{ "type": "Feature", "properties": { "name": "Marengo SNCF", "ville": "Toulouse", "mode": "Metro", "ligne": "Marengo SNCF", "Line": null }, "geometry": { "type": "Point", "coordinates": [ 1.45504, 43.61076 ] } },
{ "type": "Feature", "properties": { "name": "Palais de Justice", "ville": "Toulouse", "mode": "Metro", "ligne": "Palais de Justice", "Line": null }, "geometry": { "type": "Point", "coordinates": [ 1.44443, 43.59245 ] } },
{ "type": "Feature", "properties": { "name": "Roseraie", "ville": "Toulouse", "mode": "Metro", "ligne": "Roseraie", "Line": null }, "geometry": { "type": "Point", "coordinates": [ 1.46967, 43.61993 ] } },
{ "type": "Feature", "properties": { "name": "Jeanne d'Arc", "ville": "Toulouse", "mode": "Metro", "ligne": "Jeanne d'Arc", "Line": null }, "geometry": { "type": "Point", "coordinates": [ 1.44544, 43.60889 ] } },
{ "type": "Feature", "properties": { "name": "François Verdier", "ville": "Toulouse", "mode": "Metro", "ligne": "François Verdier", "Line": null }, "geometry": { "type": "Point", "coordinates": [ 1.4523, 43.60036 ] } },
{ "type": "Feature", "properties": { "name": "Saint-Michel - Marcel Langer", "ville": "Toulouse", "mode": "Metro", "ligne": "Saint-Michel - Marcel Langer", "Line": null }, "geometry": { "type": "Point", "coordinates": [ 1.44709, 43.58611 ] } },
{ "type": "Feature", "properties": { "name": "Argoulets", "ville": "Toulouse", "mode": "Metro", "ligne": "Argoulets", "Line": null }, "geometry": { "type": "Point", "coordinates": [ 1.47683, 43.62437 ] } },
{ "type": "Feature", "properties": { "name": "Balma Gramont", "ville": "Toulouse", "mode": "Metro", "ligne": "Balma Gramont", "Line": null }, "geometry": { "type": "Point", "coordinates": [ 1.48271, 43.62912 ] } },
{ "type": "Feature", "properties": { "name": "Patte d'Oie", "ville": "Toulouse", "mode": "Metro", "ligne": "Patte d'Oie", "Line": null }, "geometry": { "type": "Point", "coordinates": [ 1.42325, 43.59645 ] } },